time(millisecond),datetime(utc),latitude,longitude,height_above_takeoff(feet),height_above_ground_at_drone_location(feet),ground_elevation_at_drone_location(feet),altitude_above_seaLevel(feet),height_sonar(feet),speed(mph),distance(feet),mileage(feet),satellites,gpslevel,voltage(v),max_altitude(feet),max_ascent(feet),max_speed(mph),max_distance(feet), xSpeed(mph), ySpeed(mph), zSpeed(mph), compass_heading(degrees), pitch(degrees), roll(degrees),isPhoto,isVideo,rc_elevator,rc_aileron,rc_throttle,rc_rudder,rc_elevator(percent),rc_aileron(percent),rc_throttle(percent),rc_rudder(percent),gimbal_heading(degrees),gimbal_pitch(degrees),gimbal_roll(degrees),battery_percent,voltageCell1,voltageCell2,voltageCell3,voltageCell4,voltageCell5,voltageCell6,current(A),battery_temperature(f),altitude(feet),ascent(feet),flycStateRaw,flycState,message
0,2023-12-22 19:56:32,38.7215258502576,-121.169326008723,0,Available with any HD 360 subscription,Available with any HD 360 subscription,466.09744864215,0.328084,0,0,0,16,5,0,466.09744864215,0,0,0,0,0,0,325.9, 2.7, -0.1,0,1,1024,1024,1024,1024,0,0,0,0,312.4,0,0,99,4.311,4.308,0,0,0,0,0,72.86,466.09744864215,0,41,Motors_Started,
100,2023-12-22 19:56:32,38.7215258568416,-121.1693260044,0,,,466.09744864215,0.328084,0,0.00269893053256,0.00269893053256,16,5,0,466.09744864215,0,0,0.00269893053256,0,0,0,325.9, 2.7, -0.1,0,1,1024,1024,1024,1024,0,0,0,0,312.4,0,0,99,4.311,4.308,0,0,0,0,0,72.86,466.09744864215,0,41,Motors_Started,
200,2023-12-22 19:56:32,38.721525822802,-121.169325999996,0,,,466.09744864215,0.328084,0,0.0103205711964,0.0151813653152,16,5,0,466.09744864215,0,0,0.0103205711964,0,0,0,326, 2.7, -0.1,0,1,1024,1024,1024,1024,0,0,0,0,312.4,0,0,99,4.311,4.308,0,0,0,0,0,72.86,466.09744864215,0,41,Motors_Started,
300,2023-12-22 19:56:32,38.721525708925,-121.169326033821,0,,,466.09744864215,0.328084,0,0.052057744448,0.057830382428,16,5,0,466.09744864215,0,0,0.052057744448,0,0,0,325.9, 2.7, -0.1,0,1,1024,1024,1024,1024,0,0,0,0,312.4,0,0,99,4.311,4.308,0,0,0,0,0,72.86,466.09744864215,0,41,Motors_Started,
400,2023-12-22 19:56:32,38.7215256920001,-121.169326080259,0,,,466.09744864215,0.328084,0,0.061225723744,0.072420605992,16,5,0,466.09744864215,0,0,0.061225723744,0,0,0,326, 2.7, -0.1,0,1,1024,1024,1024,1024,0,0,0,0,312.4,0,0,99,4.311,4.308,0,0,0,0,0,72.86,466.09744864215,0,41,Motors_Started,
500,2023-12-22 19:56:32,38.7215257236917,-121.169326138873,0,,,466.09744864215,0.328084,0,0.059202101632,0.09271981924,16,5,0,466.09744864215,0,0,0.061225723744,0,0,0,325.9, 2.7, -0.1,0,1,1024,1024,1024,1024,0,0,0,0,312.4,0,0,99,4.311,4.308,0,0,0,0,0,72.86,466.09744864215,0,41,Motors_Started,
600,2023-12-22 19:56:32,38.7215257705701,-121.16932620308,0,,,466.09744864215,0.328084,0,0.062498689664,0.117751316104,16,5,0,466.09744864215,0,0,0.062498689664,0,0,0,325.9, 2.7, -0.1,0,1,1024,1024,1024,1024,0,0,0,0,312.4,0,0,99,4.311,4.308,0,0,0,0,0,72.86,466.09744864215,0,41,Motors_Started,
700,2023-12-22 19:56:32,38.721525887449,-121.169326238909,0,,,466.09744864215,0.328084,0,0.066913716052,0.161597446116,16,5,0,466.09744864215,0,0,0.066913716052,0,0,0,325.9, 2.7, -0.1,0,1,1024,1024,1024,1024,0,0,0,0,312.4,0,0,99,4.311,4.308,0,0,0,0,0,72.86,466.09744864215,0,41,Motors_Started,"Setting new Return-To-Home altitude to 100m (328 ft). Data Recorder File Index is 15. Setting new Maximum Flight Altitude to 500m (1640 ft)"
800,2023-12-22 19:56:32,38.7215259046195,-121.169326255,0,,,466.09744864215,0.328084,0,0.072855317292,0.169357945052,16,5,0,466.09744864215,0,0,0.072855317292,0,0,0,325.9, 2.7, -0.1,0,1,1024,1024,1024,1024,0,0,0,0,312.4,0,0,99,4.311,4.308,0,0,0,0,0,72.86,466.09744864215,0,41,Motors_Started,
900,2023-12-22 19:56:33,38.7215259501093,-121.169326253242,0,,,466.09744864215,0.328084,0,0.078561026136,0.185962276292,16,5,0,466.09744864215,0,0,0.078561026136,0,0,0,325.9, 2.7, -0.1,0,1,1024,1024,1024,1024,0,0,0,0,312.4,0,0,99,4.311,4.308,0,0,0,0,0,72.86,466.09744864215,0,41,Motors_Started,
1000,2023-12-22 19:56:33,38.7215260031286,-121.169326250518,0,,,466.09744864215,0.328084,0,0.088589569764,0.205321856964,16,5,0,466.09744864215,0,0,0.088589569764,0,0,0,326, 2.7, -0.1,0,1,1024,1024,1024,1024,0,0,0,0,312.4,0,0,99,4.311,4.308,0,0,0,0,0,72.86,466.09744864215,0,41,Motors_Started,
1100,2023-12-22 19:56:33,38.7215260582987,-121.169326252497,0,,,466.09744864215,0.328084,0,0.102842194892,0.225458668632,16,5,8.626,466.09744864215,0,0,0.102842194892,0,0,0,325.9, 2.7, -0.1,0,1,1024,1024,1024,1024,0,0,0,0,312.4,0,0,99,4.311,4.308,0,0,0,0,1.165,72.86,466.09744864215,0,11,AutoTakeoff,
1200,2023-12-22 19:56:33,38.721526069802,-121.169326296996,0,,,466.09744864215,0.328084,0,0.11467191968,0.23880250108,16,5,8.626,466.09744864215,0,0,0.11467191968,0,0,0,325.9, 2.6, -0.1,0,1,1024,1024,1024,1024,0,0,0,0,312.4,0,0,99,4.311,4.308,0,0,0,0,1.165,72.86,466.09744864215,0,11,AutoTakeoff,
1300,2023-12-22 19:56:33,38.7215261056371,-121.169326315773,0,,,466.09744864215,0.328084,0,0.127753284928,0.252927173448,16,5,8.626,466.09744864215,0,0,0.127753284928,0,0,0,325.9, 2.7, -0.1,0,1,1024,1024,1024,1024,0,0,0,0,312.4,0,0,99,4.311,4.308,0,0,0,0,1.165,72.86,466.09744864215,0,11,AutoTakeoff,
1400,2023-12-22 19:56:33,38.7215261514511,-121.169326327271,0,,,466.09744864215,0.328084,0,0.142471133168,0.269959982392,16,5,8.626,466.09744864215,0,0,0.142471133168,0,0,0,325.9, 2.7, -0.1,0,1,1024,1024,1024,1024,0,0,0,0,312.4,0,0,99,4.311,4.308,0,0,0,0,1.165,72.86,466.09744864215,0,11,AutoTakeoff,
1500,2023-12-22 19:56:33,38.7215261673452,-121.169326324774,0,,,466.09744864215,0.328084,0,0.146552826212,0.27580217418,16,5,8.626,466.09744864215,0,0,0.146552826212,0,0,0,325.8, 2.3, -0.1,0,1,1024,1024,1024,1024,0,0,0,0,312.4,0,0,99,4.311,4.308,0,0,0,0,1.165,72.86,466.09744864215,0,11,AutoTakeoff,
1600,2023-12-22 19:56:33,38.7215261661531,-121.169326238502,0,,,466.09744864215,0.328084,0,0.132520673532,0.300363526672,16,5,8.626,466.09744864215,0,0,0.146552826212,0,0,0,325.4, -0.2, -0.5,0,1,1024,1024,1024,1024,0,0,0,0,312.4,0,0,99,4.311,4.308,0,0,0,0,1.165,72.86,466.09744864215,0,11,AutoTakeoff,
1700,2023-12-22 19:56:33,38.7215261566096,-121.169326247371,0,,,466.09744864215,0.328084,0,0.130796920196,0.304664379828,16,5,8.626,466.09744864215,0,0,0.146552826212,0,0,-0.223694,325.2, 0, -1,0,1,1024,1024,1024,1024,0,0,0,0,312.4,0,0,99,4.311,4.308,0,0,0,0,1.165,72.86,466.09744864215,0,11,AutoTakeoff,"Home Point updated. RTH altitude adjusted to 100 m (Code: 120852)"
1800,2023-12-22 19:56:33,38.7215261382573,-121.169326265157,0,,,466.09744864215,0.328084,0,0.12794291748,0.313059065136,16,5,8.626,466.09744864215,0,0,0.146552826212,0,0,-0.671082,325.1, -0.3, -0.7,0,1,1024,1024,1024,1024,0,0,0,0,312.3,0,0,99,4.311,4.308,0,0,0,0,1.165,72.86,466.09744864215,0,11,AutoTakeoff,
1900,2023-12-22 19:56:34,38.7215261204649,-121.169326257258,0,,,466.09744864215,0.656168,0,0.121342851652,0.319928816012,16,5,8.626,466.09744864215,0,0,0.146552826212,0,0,-0.894776,324.9, 0.1, -0.4,0,1,1024,1024,1024,1024,0,0,0,0,312.3,0,0,99,4.311,4.308,0,0,0,0,1.165,72.86,466.09744864215,0,11,AutoTakeoff,
2000,2023-12-22 19:56:34,38.7215260377752,-121.169326270475,0.328084,,,466.42553264215,0.656168,0,0.101154530796,0.35033137604,16,5,8.626,466.42553264215,0.328084,0,0.146552826212,0,0,-1.11847,324.8, 0.6, -0.7,0,1,1024,1024,1024,1024,0,0,0,0,312.3,0,0,99,4.311,4.308,0,0,0,0,1.165,72.86,466.42553264215,0.328084,11,AutoTakeoff,
2100,2023-12-22 19:56:34,38.7215259725173,-121.16932623707,0.328084,,,466.42553264215,0.656168,0,0.078833335856,0.37597114064,16,5,8.626,466.42553264215,0.328084,0,0.146552826212,0,0,-1.342164,325.1, 0.2, -0.6,0,1,1024,1024,1024,1024,0,0,0,0,312.3,0,0,99,4.311,4.308,0,0,0,0,1.165,72.86,466.42553264215,0.328084,11,AutoTakeoff,
2200,2023-12-22 19:56:34,38.7215258740614,-121.169326185263,0.656168,,,466.75361664215,0.984252,0,0.050997705044,0.41479988204,16,5,8.552,466.75361664215,0.656168,0,0.146552826212,0,0,-1.565858,325.1, -0.4, -0.3,0,1,1024,1024,1024,1024,0,0,0,0,312.3,0,0,99,4.244,4.236,0,0,0,0,2.223,72.86,466.75361664215,0.656168,11,AutoTakeoff,
2300,2023-12-22 19:56:34,38.7215258409421,-121.169326167713,0.984252,,,467.08170064215,1.312336,0,0.045384843972,0.42787731028,16,5,8.552,467.08170064215,0.984252,0,0.146552826212,0,0,-1.789552,325.1, -1.2, -0.4,0,1,1024,1024,1024,1024,0,0,0,0,312.2,0,0,99,4.244,4.236,0,0,0,0,2.223,72.86,467.08170064215,0.984252,11,AutoTakeoff,
2400,2023-12-22 19:56:34,38.7215258252402,-121.169326204981,1.312336,,,467.40978464215,1.64042,0,0.056606301024,0.43993111644,16,5,8.552,467.40978464215,1.312336,0,0.146552826212,0,0,-2.013246,325.2, -1.6, -0.6,0,1,1024,1024,1024,1024,0,0,0,0,312.2,0,0,99,4.244,4.236,0,0,0,0,2.223,72.86,467.40978464215,1.312336,11,AutoTakeoff,
2500,2023-12-22 19:56:34,38.7215258548126,-121.169326131938,1.64042,,,467.73786864215,1.968504,0,0.035112862016,0.46335631404,16,5,8.552,467.73786864215,1.64042,0,0.146552826212,0,0,-2.013246,325.2, -1.5, -0.6,0,1,1024,1024,1024,1024,0,0,0,0,312.2,0,0,99,4.244,4.236,0,0,0,0,2.223,72.86,467.73786864215,1.64042,11,AutoTakeoff,
2600,2023-12-22 19:56:34,38.7215258998508,-121.169326034687,1.968504,,,468.06595264215,2.296588,0,0.019545276216,0.49555119696,16,5,8.552,468.06595264215,1.968504,0,0.146552826212,0,0,-2.23694,325.1, -1.5, -0.6,0,1,1024,1024,1024,1024,0,0,0,0,312.2,0,0,99,4.244,4.236,0,0,0,0,2.223,72.86,468.06595264215,1.968504,11,AutoTakeoff,
2700,2023-12-22 19:56:34,38.7215258189133,-121.169325928545,2.296588,,,468.39403664215,2.624672,0,0.0255278223392,0.53779857364,16,5,8.552,468.39403664215,2.296588,0,0.146552826212,0,0,-2.23694,325, -1.6, -0.7,0,1,1024,1024,1024,1024,0,0,0,0,312.2,0,0,99,4.244,4.236,0,0,0,0,2.223,72.86,468.39403664215,2.296588,11,AutoTakeoff,
2800,2023-12-22 19:56:34,38.7215256094521,-121.169325690982,2.624672,,,468.72212064215,2.952756,0,0.126093179888,0.63984254016,16,5,8.552,468.72212064215,2.624672,0,0.146552826212,0,0,-2.23694,325, -1.4, -1.2,0,1,1024,1024,1024,1024,0,0,0,0,312.2,0,0,99,4.244,4.236,0,0,0,0,2.223,72.86,468.72212064215,2.624672,6,P-GPS,
2900,2023-12-22 19:56:34,38.7215255399379,-121.169325602836,2.952756,,,469.05020464215,3.28084,0,0.161764112788,0.67551839432,16,5,8.552,469.05020464215,2.952756,0,0.161764112788,0,0,-2.013246,325.3, -1.2, -1.8,0,1,1024,1024,1024,1024,0,0,0,0,312.2,0,0,99,4.244,4.236,0,0,0,0,2.223,72.86,469.05020464215,2.952756,6,P-GPS,
3000,2023-12-22 19:56:35,38.7215254784649,-121.169325520558,3.28084,,,469.37828864215,3.28084,0,0.194190294928,0.70794621688,16,5,8.552,469.37828864215,3.28084,0,0.194190294928,0,0,-1.565858,325.8, -1.4, -1.7,0,1,1024,1024,1024,1024,0,0,0,0,312.2,0,0,99,4.244,4.236,0,0,0,0,2.223,72.86,469.37828864215,3.28084,6,P-GPS,
3100,2023-12-22 19:56:35,38.7215254717879,-121.169325385539,3.28084,,,469.37828864215,3.608924,0,0.224800204044,0.7464567168,16,5,8.552,469.37828864215,3.28084,0,0.224800204044,0,0,-1.11847,326.4, -1.6, -1.7,0,1,1024,1024,1024,1024,0,0,0,0,312.2,0,0,99,4.244,4.236,0,0,0,0,2.223,72.86,469.37828864215,3.28084,6,P-GPS,
3200,2023-12-22 19:56:35,38.7215254821411,-121.169325225975,3.608924,,,469.70637264215,3.608924,0,0.26016076948,0.79203414608,16,5,8.447,469.70637264215,3.608924,0,0.26016076948,0,0,-0.671082,327, -1.5, -1.9,0,1,1024,1024,1024,1024,0,0,0,0,312.2,0,0,99,4.223,4.218,0,0,0,0,4.724,73.04,469.70637264215,3.608924,6,P-GPS,
3300,2023-12-22 19:56:35,38.7215254038321,-121.169325054752,3.608924,,,469.70637264215,3.937008,0,0.31665355344,0.84853021088,16,5,8.447,469.70637264215,3.608924,0,0.31665355344,0,0,-0.223694,327.6, -1.5, -2.2,0,1,1024,1024,1024,1024,0,0,0,0,312.2,0,0,99,4.223,4.218,0,0,0,0,4.724,73.04,469.70637264215,3.608924,6,P-GPS,
3400,2023-12-22 19:56:35,38.7215252903385,-121.169324876855,3.608924,,,469.70637264215,3.937008,0,0.3814960752,0.9139435988,16,5,8.447,469.70637264215,3.608924,0,0.3814960752,0,0,0,328.3, -1.7, -2.6,0,1,1024,1024,1024,1024,0,0,0,0,312.2,0,0,99,4.223,4.218,0,0,0,0,4.724,73.04,469.70637264215,3.608924,6,P-GPS,
3500,2023-12-22 19:56:35,38.7215251885203,-121.169324871208,3.608924,,,469.70637264215,3.937008,0,0.40390093156,0.95112863936,16,5,8.447,469.70637264215,3.608924,0,0.40390093156,0,0,0,329, -1.8, -2.5,0,1,1024,1024,1024,1024,0,0,0,0,312.2,0,0,99,4.223,4.218,0,0,0,0,4.724,73.04,469.70637264215,3.608924,6,P-GPS,
3600,2023-12-22 19:56:35,38.7215250875099,-121.169324920944,3.608924,,,469.70637264215,3.937008,0,0.41631891096,0.99060698708,16,5,8.447,469.70637264215,3.608924,0,0.41631891096,0,0,0,329.6, -2, -2.4,0,1,1024,1024,1024,1024,0,0,0,0,312.2,0,0,99,4.223,4.218,0,0,0,0,4.724,73.04,469.70637264215,3.608924,6,P-GPS,
3700,2023-12-22 19:56:35,38.7215248312917,-121.169324933216,3.608924,,,469.70637264215,3.937008,0,0.48160106528,1.084153578,16,5,8.447,469.70637264215,3.608924,0,0.48160106528,0,0,0,330.2, -2, -2.2,0,1,1024,1024,1024,1024,0,0,0,0,312.2,0,0,99,4.223,4.218,0,0,0,0,4.724,73.04,469.70637264215,3.608924,6,P-GPS,
3800,2023-12-22 19:56:35,38.7215246970119,-121.169324846859,3.608924,,,469.70637264215,3.937008,0,0.53518374416,1.13896657188,16,5,8.447,469.70637264215,3.608924,0,0.53518374416,0,0,0,330.9, -2.6, -1.6,0,1,1024,1024,1024,1024,0,0,0,0,312.2,0,0,99,4.223,4.218,0,0,0,0,4.724,73.04,469.70637264215,3.608924,6,P-GPS,
3900,2023-12-22 19:56:36,38.7215246152754,-121.169324864763,3.608924,,,469.70637264215,3.937008,0,0.55593177632,1.16921919752,16,5,8.447,469.70637264215,3.608924,0,0.55593177632,0,0,0,331.4, -2.6, -1.8,0,1,1024,1024,1024,1024,0,0,0,0,312.2,0,0,99,4.223,4.218,0,0,0,0,4.724,73.04,469.70637264215,3.608924,6,P-GPS,
4000,2023-12-22 19:56:36,38.7215245516785,-121.169324920972,3.608924,,,469.70637264215,3.937008,0,0.56599083176,1.19740489396,16,5,8.447,469.70637264215,3.608924,0,0.56599083176,0,0,0,331.9, -2.6, -2.1,0,1,1024,1024,1024,1024,0,0,0,0,312.2,0,0,99,4.223,4.218,0,0,0,0,4.724,73.04,469.70637264215,3.608924,6,P-GPS,
4100,2023-12-22 19:56:36,38.7215246079796,-121.169325001063,3.608924,,,469.70637264215,3.937008,0,0.53638125076,1.22809387132,16,5,8.447,469.70637264215,3.608924,0,0.56599083176,0,0,0,332.3, -2.2, -2.2,0,1,1024,1024,1024,1024,0,0,0,0,312.2,0,0,99,4.223,4.218,0,0,0,0,4.724,73.04,469.70637264215,3.608924,6,P-GPS,
4200,2023-12-22 19:56:36,38.7215245804324,-121.169325020452,3.608924,,,469.70637264215,3.937008,0,0.54201445304,1.23956040712,16,5,8.468,469.70637264215,3.608924,0,0.56599083176,0,0,0,332.7, -2.3, -2,0,1,1024,1024,1024,1024,0,0,0,0,312.2,0,0,99,4.227,4.225,0,0,0,0,3.646,73.04,469.70637264215,3.608924,6,P-GPS,
4300,2023-12-22 19:56:36,38.7215245216578,-121.169325091147,3.608924,,,469.70637264215,3.937008,0,0.55062993888,1.26896657604,16,5,8.468,469.70637264215,3.608924,0,0.56599083176,0,0,0,333.1, -2.3, -1.2,0,1,1024,1024,1024,1024,0,0,0,0,312.2,0,0,99,4.227,4.225,0,0,0,0,3.646,73.04,469.70637264215,3.608924,6,P-GPS,
4400,2023-12-22 19:56:36,38.7215244470347,-121.169325191234,3.608924,,,469.70637264215,3.937008,0,0.5623687844,1.30837274528,16,5,8.468,469.70637264215,3.608924,0,0.56599083176,0,0,0,333.5, -2.5, -0.6,0,1,1024,1024,1024,1024,0,0,0,0,312.2,0,0,99,4.227,4.225,0,0,0,0,3.646,73.04,469.70637264215,3.608924,6,P-GPS,
4500,2023-12-22 19:56:36,38.7215243986956,-121.169325200091,3.608924,,,469.70637264215,3.937008,0,0.5774606484,1.32619098732,16,5,8.468,469.70637264215,3.608924,0,0.5774606484,0,0,0,333.8, -2.6, -0.5,0,1,1024,1024,1024,1024,0,0,0,0,312.2,0,0,99,4.227,4.225,0,0,0,0,3.646,73.04,469.70637264215,3.608924,6,P-GPS,
4600,2023-12-22 19:56:36,38.7215243483229,-121.169325251451,3.608924,,,469.70637264215,3.937008,0,0.58885500572,1.34967524004,16,5,8.468,469.70637264215,3.608924,0,0.58885500572,0,0,0,334.1, -2.9, -0.4,0,1,1024,1024,1024,1024,0,0,0,0,312.2,0,0,99,4.227,4.225,0,0,0,0,3.646,73.04,469.70637264215,3.608924,6,P-GPS,
4700,2023-12-22 19:56:36,38.7215243081867,-121.169325299351,3.608924,,,469.70637264215,3.937008,0,0.59776248632,1.36968180236,16,5,8.468,469.70637264215,3.608924,0,0.59776248632,0,0,0,334.3, -3, -0.4,0,1,1024,1024,1024,1024,0,0,0,0,312.2,0,0,99,4.227,4.225,0,0,0,0,3.646,73.04,469.70637264215,3.608924,6,P-GPS,
4800,2023-12-22 19:56:36,38.7215242779196,-121.16932535547,3.608924,,,469.70637264215,3.937008,0,0.6030512004,1.38910437516,17,5,8.468,469.70637264215,3.608924,0,0.6030512004,0,0,0,334.6, -2.8, -0.5,0,1,1024,1024,1024,1024,0,0,0,0,312.2,0,0,99,4.227,4.225,0,0,0,0,3.646,73.04,469.70637264215,3.608924,6,P-GPS,
4900,2023-12-22 19:56:37,38.7215242260476,-121.169325422737,3.608924,,,469.70637264215,3.937008,0,0.61562009844,1.41602366736,17,5,8.468,469.70637264215,3.608924,0,0.61562009844,0,0,0,334.9, -2.5, -0.7,0,1,1024,1024,1024,1024,0,0,0,0,312.2,0,0,99,4.227,4.225,0,0,0,0,3.646,73.04,469.70637264215,3.608924,6,P-GPS,
5000,2023-12-22 19:56:37,38.7215241171991,-121.169325426922,3.608924,,,469.70637264215,3.937008,0,0.65363519152,1.4557579206,17,5,8.468,469.70637264215,3.608924,0,0.65363519152,0,0,0,335.2, -2.3, -0.7,0,1,1024,1024,1024,1024,0,0,0,0,312.2,0,0,99,4.227,4.225,0,0,0,0,3.646,73.04,469.70637264215,3.608924,6,P-GPS,
5100,2023-12-22 19:56:37,38.7215241299421,-121.169325549413,3.608924,,,469.70637264215,3.937008,0,0.64112862944,1.49093180624,17,5,8.468,469.70637264215,3.608924,0,0.65363519152,0,0,0,335.5, -2.2, -0.1,0,1,1024,1024,1024,1024,0,0,0,0,312.2,0,0,99,4.227,4.225,0,0,0,0,3.646,73.04,469.70637264215,3.608924,6,P-GPS,
5200,2023-12-22 19:56:37,38.7215241667376,-121.169325690428,3.608924,,,469.70637264215,3.937008,0,0.62087928496,1.53325792308,17,5,8.449,469.70637264215,3.608924,0,0.65363519152,0,0,0,335.7, -1.8, 0.3,0,1,1024,1024,1024,1024,0,0,0,0,312.2,0,0,99,4.225,4.221,0,0,0,0,4.042,73.04,469.70637264215,3.608924,6,P-GPS,
5300,2023-12-22 19:56:37,38.7215241826613,-121.169325786773,3.608924,,,469.70637264215,3.937008,0,0.61169293296,1.56129270088,17,5,8.449,469.70637264215,3.608924,0,0.65363519152,0,0,0,335.9, -1.8, 0,0,1,1024,1024,1024,1024,0,0,0,0,312.2,0,0,99,4.225,4.221,0,0,0,0,4.042,73.04,469.70637264215,3.608924,6,P-GPS,
5400,2023-12-22 19:56:37,38.7215242767736,-121.169325893275,3.608924,,,469.70637264215,3.937008,0,0.57502298428,1.60709650812,17,5,8.449,469.70637264215,3.608924,0,0.65363519152,0,0,0,336, -1.7, -0.4,0,1,1024,1024,1024,1024,0,0,0,0,312.2,0,0,99,4.225,4.221,0,0,0,0,4.042,73.04,469.70637264215,3.608924,6,P-GPS,
5500,2023-12-22 19:56:37,38.721524286471,-121.169325983705,3.608924,,,469.70637264215,3.937008,0,0.57059056944,1.63308076092,17,5,8.449,469.70637264215,3.608924,0,0.65363519152,0,0,0,336.3, -1.7, -0.1,0,1,1024,1024,1024,1024,0,0,0,0,312.2,0,0,99,4.225,4.221,0,0,0,0,4.042,73.04,469.70637264215,3.608924,6,P-GPS,
5600,2023-12-22 19:56:37,38.721524296354,-121.169326078987,3.608924,,,469.70637264215,3.937008,0,0.56729332524,1.66043968568,17,5,8.449,469.70637264215,3.608924,0,0.65363519152,0,0,0,336.4, -1.8, 0,0,1,1024,1024,1024,1024,0,0,0,0,312.2,0,0,99,4.225,4.221,0,0,0,0,4.042,73.04,469.70637264215,3.608924,6,P-GPS,
5700,2023-12-22 19:56:37,38.7215242645969,-121.169326153104,3.608924,,,469.70637264215,3.937008,0,0.5799868952,1.68451120876,17,5,8.449,469.70637264215,3.608924,0,0.65363519152,0,0,0,336.5, -1.6, -0.5,0,1,1024,1024,1024,1024,0,0,0,0,312.2,0,0,99,4.225,4.221,0,0,0,0,4.042,73.04,469.70637264215,3.608924,6,P-GPS,
5800,2023-12-22 19:56:37,38.7215241615652,-121.169326223523,3.608924,,,469.70637264215,3.937008,0,0.6191437206,1.72711291616,17,5,8.449,469.70637264215,3.608924,0,0.65363519152,0,0,0,336.8, -1.6, -0.5,0,1,1024,1024,1024,1024,0,0,0,0,312.2,0,0,99,4.225,4.221,0,0,0,0,4.042,73.04,469.70637264215,3.608924,6,P-GPS,
5900,2023-12-22 19:56:38,38.7215241700592,-121.169326267341,3.608924,,,469.70637264215,3.937008,0,0.61742456044,1.73996396644,17,5,8.449,469.70637264215,3.608924,0,0.65363519152,0,0,0,337, -1.7, -0.4,0,1,1024,1024,1024,1024,0,0,0,0,312.2,0,0,99,4.225,4.221,0,0,0,0,4.042,73.04,469.70637264215,3.608924,6,P-GPS,
6000,2023-12-22 19:56:38,38.7215241947371,-121.169326308718,3.608924,,,469.70637264215,3.937008,0,0.6100229854,1.7547900824,17,5,8.449,469.70637264215,3.608924,0,0.65363519152,0,0,0,337.1, -1.6, -0.3,0,1,1024,1024,1024,1024,0,0,0,0,312.2,0,0,99,4.225,4.221,0,0,0,0,4.042,73.04,469.70637264215,3.608924,6,P-GPS,
6100,2023-12-22 19:56:38,38.7215242086802,-121.16932634646,3.608924,,,469.70637264215,3.937008,0,0.6065945076,1.76667656572,17,5,8.449,469.70637264215,3.608924,0,0.65363519152,0,0,0,337.2, -1.2, -0.1,0,1,1024,1024,1024,1024,0,0,0,0,312.2,0,0,99,4.225,4.221,0,0,0,0,4.042,73.04,469.70637264215,3.608924,6,P-GPS,
6200,2023-12-22 19:56:38,38.7215243058857,-121.169326263254,3.608924,,,469.70637264215,3.937008,0,0.56810369272,1.80932420488,17,5,8.442,469.70637264215,3.608924,0,0.65363519152,0,0,0,337.3, -1.2, 0,0,1,1024,1024,1024,1024,0,0,0,0,312.2,0,0,99,4.22,4.217,0,0,0,0,4.044,73.04,469.70637264215,3.608924,6,P-GPS,
6300,2023-12-22 19:56:38,38.7215243826652,-121.169326298044,3.608924,,,469.70637264215,3.937008,0,0.54174542416,1.83903549192,17,5,8.442,469.70637264215,3.608924,0,0.65363519152,0,0,0,337.4, -1.1, -0.1,0,1,1024,1024,1024,1024,0,0,0,0,312.2,0,0,99,4.22,4.217,0,0,0,0,4.044,73.04,469.70637264215,3.608924,6,P-GPS,
6400,2023-12-22 19:56:38,38.721524478883,-121.169326327754,3.608924,,,469.70637264215,3.937008,0,0.50852035748,1.87514441696,17,5,8.442,469.70637264215,3.608924,0,0.65363519152,0,0,0,337.6, -1.1, 0.2,0,1,1024,1024,1024,1024,0,0,0,0,312.2,0,0,99,4.22,4.217,0,0,0,0,4.044,73.04,469.70637264215,3.608924,6,P-GPS,
6500,2023-12-22 19:56:38,38.7215245578345,-121.169326381266,3.608924,,,469.70637264215,3.937008,0,0.4833169446,1.90772971984,17,5,8.442,469.70637264215,3.608924,0,0.65363519152,0,0,0,337.6, -1.2, 0.1,0,1,1024,1024,1024,1024,0,0,0,0,312.2,0,0,99,4.22,4.217,0,0,0,0,4.044,73.04,469.70637264215,3.608924,6,P-GPS,
6600,2023-12-22 19:56:38,38.721524634156,-121.169326435224,3.608924,,,469.70637264215,3.937008,0,0.46000329556,1.93953090196,17,5,8.442,469.70637264215,3.608924,0,0.65363519152,0,0,0,337.6, -1.2, -0.4,0,1,1024,1024,1024,1024,0,0,0,0,312.2,0,0,99,4.22,4.217,0,0,0,0,4.044,73.04,469.70637264215,3.608924,6,P-GPS,
6700,2023-12-22 19:56:38,38.7215247834896,-121.169326466063,3.608924,,,469.70637264215,3.937008,0,0.41040355644,1.9947179116,17,5,8.442,469.70637264215,3.608924,0,0.65363519152,0,0,0,337.7, -1.1, -0.9,0,1,1024,1024,1024,1024,0,0,0,0,312.2,0,0,99,4.22,4.217,0,0,0,0,4.044,73.04,469.70637264215,3.608924,6,P-GPS,
6800,2023-12-22 19:56:38,38.7215249545552,-121.169326498049,3.608924,,,469.70637264215,3.937008,0,0.35524279352,2.0577920606,17,5,8.442,469.70637264215,3.608924,0,0.65363519152,0,0,0,337.9, -1.2, -0.8,0,1,1024,1024,1024,1024,0,0,0,0,312.2,0,0,99,4.22,4.217,0,0,0,0,4.044,73.04,469.70637264215,3.608924,6,P-GPS,
6900,2023-12-22 19:56:39,38.7215250213173,-121.169326485406,3.608924,,,469.70637264215,3.937008,0,0.33148295024,2.0824147648,17,5,8.442,469.70637264215,3.608924,0,0.65363519152,0,0,0,338, -0.9, -0.3,0,1,1024,1024,1024,1024,0,0,0,0,312.2,0,0,99,4.22,4.217,0,0,0,0,4.044,73.04,469.70637264215,3.608924,6,P-GPS,
7000,2023-12-22 19:56:39,38.7215250535878,-121.169326455816,3.608924,,,469.70637264215,3.937008,0,0.317305456348,2.09688983088,17,5,8.442,469.70637264215,3.608924,0,0.65363519152,0,0,0,338, -0.9, -0.3,0,1,1024,1024,1024,1024,0,0,0,0,312.2,0,0,99,4.22,4.217,0,0,0,0,4.044,73.04,469.70637264215,3.608924,6,P-GPS,
7100,2023-12-22 19:56:39,38.721525085787,-121.169326427075,3.608924,,,469.70637264215,3.937008,0,0.303275272172,2.11120741664,17,5,8.442,469.70637264215,3.608924,0,0.65363519152,0,0,0,338.1, -0.9, -0.5,0,1,1024,1024,1024,1024,0,0,0,0,312.2,0,0,99,4.22,4.217,0,0,0,0,4.044,73.04,469.70637264215,3.608924,6,P-GPS,
7200,2023-12-22 19:56:39,38.7215251123217,-121.169326446059,3.608924,,,469.70637264215,3.937008,0,0.296623369072,2.122293375,17,5,8.442,469.70637264215,3.608924,0,0.65363519152,0,0,0,338.2, -0.9, -0.6,0,1,1024,1024,1024,1024,0,0,0,0,312.2,0,0,99,4.22,4.217,0,0,0,0,4.044,73.04,469.70637264215,3.608924,6,P-GPS,
7300,2023-12-22 19:56:39,38.7215251397805,-121.169326442509,3.608924,,,469.70637264215,3.937008,0,0.287124681104,2.13236227296,17,5,8.432,469.70637264215,3.608924,0,0.65363519152,0,0,0,338.1, -0.8, -1.1,0,1,1024,1024,1024,1024,0,0,0,0,312.2,0,0,99,4.214,4.214,0,0,0,0,4.067,73.04,469.70637264215,3.608924,6,P-GPS,
7400,2023-12-22 19:56:39,38.7215251661059,-121.16932643346,3.608924,,,469.70637264215,3.937008,0,0.277351386828,2.142306499,17,5,8.432,469.70637264215,3.608924,0,0.65363519152,0,0,0,338.2, -0.9, -1.2,0,1,1024,1024,1024,1024,0,0,0,0,312.2,0,0,99,4.214,4.214,0,0,0,0,4.067,73.04,469.70637264215,3.608924,6,P-GPS,
7500,2023-12-22 19:56:39,38.7215251171478,-121.169326388317,3.608924,,,469.70637264215,3.937008,0,0.288475402932,2.16431109288,17,5,8.432,469.70637264215,3.608924,0,0.65363519152,0,0,0,338.3, -0.8, -0.6,0,1,1024,1024,1024,1024,0,0,0,0,312.2,0,0,99,4.214,4.214,0,0,0,0,4.067,73.04,469.70637264215,3.608924,6,P-GPS,
7600,2023-12-22 19:56:39,38.7215250982515,-121.169326362765,3.608924,,,469.70637264215,3.937008,0,0.292292332188,2.17433405908,17,5,8.432,469.70637264215,3.608924,0,0.65363519152,0,0,0,338.4, -0.7, -0.6,0,1,1024,1024,1024,1024,0,0,0,0,312.2,0,0,99,4.214,4.214,0,0,0,0,4.067,73.04,469.70637264215,3.608924,6,P-GPS,
7700,2023-12-22 19:56:39,38.7215251110035,-121.169326367548,3.608924,,,469.70637264215,3.937008,0,0.288409129964,2.17917985976,17,5,8.432,469.70637264215,3.608924,0,0.65363519152,0,0,0,338.4, -0.8, -1.3,0,1,1024,1024,1024,1024,0,0,0,0,312.2,0,0,99,4.214,4.214,0,0,0,0,4.067,73.04,469.70637264215,3.608924,6,P-GPS,
7800,2023-12-22 19:56:39,38.7215251312088,-121.169326378323,3.608924,,,469.70637264215,3.937008,0,0.28265420852,2.18716542432,17,5,8.432,469.70637264215,3.608924,0,0.65363519152,0,0,0,338.5, -1, -1.4,0,1,1024,1024,1024,1024,0,0,0,0,312.2,0,0,99,4.214,4.214,0,0,0,0,4.067,73.04,469.70637264215,3.608924,6,P-GPS,
7900,2023-12-22 19:56:39,38.7215252569619,-121.169326468765,3.608924,,,469.70637264215,3.937008,0,0.252992462164,2.23977697456,17,5,8.432,469.70637264215,3.608924,0,0.65363519152,0,0,0,338.6, -1.2, -1.2,0,1,1024,1024,1024,1024,0,0,0,0,312.2,0,0,99,4.214,4.214,0,0,0,0,4.067,73.04,469.70637264215,3.608924,6,P-GPS,
8000,2023-12-22 19:56:40,38.7215252990106,-121.169326469327,3.608924,,,469.70637264215,3.937008,0,0.240084653352,2.2551181824,17,5,8.432,469.70637264215,3.608924,0,0.65363519152,0,0,0,338.6, -0.9, -1.3,0,1,1024,1024,1024,1024,0,0,0,0,312.2,0,0,99,4.214,4.214,0,0,0,0,4.067,73.04,469.70637264215,3.608924,6,P-GPS,
8100,2023-12-22 19:56:40,38.721525310761,-121.169326461942,3.608924,,,469.70637264215,3.937008,0,0.23534613614,2.2598918046,17,5,8.432,469.70637264215,3.608924,0,0.65363519152,0,0,0,338.4, -0.6, -1.6,0,1,1024,1024,1024,1024,0,0,0,0,312.2,0,0,99,4.214,4.214,0,0,0,0,4.067,73.04,469.70637264215,3.608924,6,P-GPS,
8200,2023-12-22 19:56:40,38.7215253058075,-121.169326450833,3.608924,,,469.70637264215,3.937008,0,0.235152238496,2.26353681784,17,5,8.432,469.70637264215,3.608924,0,0.65363519152,0,0,0,338.5, -0.7, -1.8,0,1,1024,1024,1024,1024,0,0,0,0,312.2,0,0,99,4.214,4.214,0,0,0,0,4.067,73.04,469.70637264215,3.608924,6,P-GPS,
8300,2023-12-22 19:56:40,38.7215252781958,-121.169326452567,3.608924,,,469.70637264215,3.608924,0,0.243977041928,2.27362212,17,5,8.432,469.70637264215,3.608924,0,0.65363519152,0,0,0,338.6, -1.1, -1.4,0,1,1024,1024,1024,1024,0,0,0,0,312.2,0,0,99,4.217,4.215,0,0,0,0,4.033,73.22,469.70637264215,3.608924,6,P-GPS,
8400,2023-12-22 19:56:40,38.7215251871161,-121.169326474316,3.608924,,,469.70637264215,3.608924,0,0.275868119064,2.30742461452,17,5,8.432,469.70637264215,3.608924,0,0.65363519152,0,0,0,338.7, -1.3, -1.6,0,1,1024,1024,1024,1024,0,0,0,0,312.2,0,0,99,4.217,4.215,0,0,0,0,4.033,73.22,469.70637264215,3.608924,6,P-GPS,
8500,2023-12-22 19:56:40,38.7215251816667,-121.169326489391,3.28084,,,469.37828864215,3.608924,0,0.279687672992,2.31215230496,17,5,8.432,469.70637264215,3.608924,0,0.65363519152,0,0,0,338.7, -1.6, -1.2,0,1,1024,1024,1024,1024,0,0,0,0,312.2,0,0,99,4.217,4.215,0,0,0,0,4.033,73.22,469.37828864215,3.28084,6,P-GPS,
8600,2023-12-22 19:56:40,38.7215251871727,-121.169326506511,3.28084,,,469.37828864215,3.608924,0,0.280368447292,2.31742461484,17,5,8.432,469.70637264215,3.608924,0,0.65363519152,0,0,0,338.8, -1.9, -1.2,0,1,1024,1024,1024,1024,0,0,0,0,312.2,0,0,99,4.217,4.215,0,0,0,0,4.033,73.22,469.37828864215,3.28084,6,P-GPS,
8700,2023-12-22 19:56:40,38.7215251744352,-121.169326521328,3.28084,,,469.37828864215,3.608924,0,0.286512804444,2.32370086176,17,5,8.432,469.70637264215,3.608924,0,0.65363519152,0,0,0,338.9, -2, -1.2,0,1,1024,1024,1024,1024,0,0,0,0,312.2,0,0,99,4.217,4.215,0,0,0,0,4.033,73.22,469.37828864215,3.28084,6,P-GPS,
8800,2023-12-22 19:56:40,38.7215252185233,-121.169326552455,3.28084,,,469.37828864215,3.608924,0,0.2776328829,2.34206372324,17,5,8.432,469.70637264215,3.608924,0,0.65363519152,0,0,0,338.9, -1.8, -1,0,1,1024,1024,1024,1024,0,0,0,0,312.2,0,0,99,4.217,4.215,0,0,0,0,4.033,73.22,469.37828864215,3.28084,6,P-GPS,
8900,2023-12-22 19:56:41,38.721525217829,-121.169326556344,3.28084,,,469.37828864215,3.608924,0,0.278461623084,2.34319889388,17,5,8.432,469.70637264215,3.608924,0,0.65363519152,0,0,0,338.8, -1.5, -1.3,0,1,1024,1024,1024,1024,0,0,0,0,312.2,0,0,99,4.217,4.215,0,0,0,0,4.033,73.22,469.37828864215,3.28084,6,P-GPS,
9000,2023-12-22 19:56:41,38.7215252215671,-121.169326555334,3.608924,,,469.70637264215,3.608924,0,0.277170940628,2.34459325088,17,5,8.432,469.70637264215,3.608924,0,0.65363519152,0,0,0,338.8, -1.6, -1.6,0,1,1024,1024,1024,1024,0,0,0,0,312.2,0,0,99,4.217,4.215,0,0,0,0,4.033,73.22,469.70637264215,3.608924,6,P-GPS,
9100,2023-12-22 19:56:41,38.7215252374409,-121.169326548424,3.608924,,,469.70637264215,3.608924,0,0.271278880072,2.35071201748,17,5,8.432,469.70637264215,3.608924,0,0.65363519152,0,0,0,338.8, -1.5, -1.9,0,1,1024,1024,1024,1024,0,0,0,0,312.2,0,0,99,4.217,4.215,0,0,0,0,4.033,73.22,469.70637264215,3.608924,6,P-GPS,
9200,2023-12-22 19:56:41,38.7215253002372,-121.169326517007,3.608924,,,469.70637264215,3.608924,0,0.247394692956,2.37530519412,17,5,8.432,469.70637264215,3.608924,0,0.65363519152,0,0,0,338.8, -1.3, -1.7,0,1,1024,1024,1024,1024,0,0,0,0,312.2,0,0,99,4.217,4.215,0,0,0,0,4.033,73.22,469.70637264215,3.608924,6,P-GPS,
9300,2023-12-22 19:56:41,38.7215252798422,-121.16932650819,3.608924,,,469.70637264215,3.608924,0,0.252043643236,2.38315952508,17,5,8.421,469.70637264215,3.608924,0,0.65363519152,0,0,0,338.8, -1.2, -2,0,1,1024,1024,1024,1024,0,0,0,0,312.2,0,0,99,4.208,4.207,0,0,0,0,4.018,73.22,469.70637264215,3.608924,6,P-GPS,
9400,2023-12-22 19:56:41,38.7215252439215,-121.16932650435,3.608924,,,469.70637264215,3.608924,0,0.262379601572,2.3963091318,17,5,8.421,469.70637264215,3.608924,0,0.65363519152,0,0,0,338.8, -1.3, -1.7,0,1,1024,1024,1024,1024,0,0,0,0,312.2,0,0,99,4.208,4.207,0,0,0,0,4.018,73.22,469.70637264215,3.608924,6,P-GPS,
9500,2023-12-22 19:56:41,38.7215252219225,-121.169326509045,3.608924,,,469.70637264215,3.608924,0,0.269884194988,2.404445615,17,5,8.421,469.70637264215,3.608924,0,0.65363519152,0,0,0,338.9, -1.1, -2.2,0,1,1024,1024,1024,1024,0,0,0,0,312.2,0,0,99,4.208,4.207,0,0,0,0,4.018,73.22,469.70637264215,3.608924,6,P-GPS,
9600,2023-12-22 19:56:41,38.7215251302179,-121.169326509288,3.608924,,,469.70637264215,3.608924,0,0.2988599177,2.43790362132,17,5,8.421,469.70637264215,3.608924,0,0.65363519152,0,0,0,338.9, -1.2, -1.9,0,1,1024,1024,1024,1024,0,0,0,0,312.2,0,0,99,4.208,4.207,0,0,0,0,4.018,73.22,469.70637264215,3.608924,6,P-GPS,
9700,2023-12-22 19:56:41,38.7215251079583,-121.169326532925,3.608924,,,469.70637264215,3.608924,0,0.309213592572,2.44845152192,17,5,8.421,469.70637264215,3.608924,0,0.65363519152,0,0,0,338.9, -1, -1.6,0,1,1024,1024,1024,1024,0,0,0,0,312.2,0,0,99,4.208,4.207,0,0,0,0,4.018,73.22,469.70637264215,3.608924,6,P-GPS,
9800,2023-12-22 19:56:41,38.7215250800301,-121.169326559293,3.608924,,,469.70637264215,3.608924,0,0.321764445992,2.4611057218,17,5,8.421,469.70637264215,3.608924,0,0.65363519152,0,0,0,338.9, -1.3, -1.8,0,1,1024,1024,1024,1024,0,0,0,0,312.2,0,0,99,4.208,4.207,0,0,0,0,4.018,73.22,469.70637264215,3.608924,6,P-GPS,
9900,2023-12-22 19:56:42,38.7215250923895,-121.169326587703,3.608924,,,469.70637264215,3.608924,0,0.321898304264,2.47036753312,17,5,8.421,469.70637264215,3.608924,0,0.65363519152,0,0,0,339, -1.3, -1.8,0,1,1024,1024,1024,1024,0,0,0,0,312.2,0,0,99,4.208,4.207,0,0,0,0,4.018,73.22,469.70637264215,3.608924,6,P-GPS,
10000,2023-12-22 19:56:42,38.7215251131416,-121.169326624875,3.608924,,,469.70637264215,3.608924,0,0.321073829172,2.48337606372,17,5,8.421,469.70637264215,3.608924,0,0.65363519152,0,0,0,339, -1.7, -1.3,0,1,1024,1024,1024,1024,0,0,0,0,312.2,0,0,99,4.208,4.207,0,0,0,0,4.018,73.22,469.70637264215,3.608924,6,P-GPS,
10100,2023-12-22 19:56:42,38.721525167221,-121.169326645837,3.608924,,,469.70637264215,3.608924,0,0.308210639784,2.50398958144,17,5,8.421,469.70637264215,3.608924,0,0.65363519152,0,0,0,339, -1.4, -1.1,0,1,1024,1024,1024,1024,0,0,0,0,312.2,0,0,99,4.208,4.207,0,0,0,0,4.018,73.22,469.70637264215,3.608924,6,P-GPS,
10200,2023-12-22 19:56:42,38.7215252347335,-121.169326657496,3.608924,,,469.70637264215,3.608924,0,0.290754930564,2.52884522528,17,5,8.421,469.70637264215,3.608924,0,0.65363519152,0,0,0,338.9, -1.4, -1.2,0,1,1024,1024,1024,1024,0,0,0,0,312.2,0,0,99,4.208,4.207,0,0,0,0,4.018,73.22,469.70637264215,3.608924,6,P-GPS,
10300,2023-12-22 19:56:42,38.7215252181007,-121.169326653193,3.608924,,,469.70637264215,3.608924,0,0.29470309342,2.53503617036,17,5,8.411,469.70637264215,3.608924,0,0.65363519152,0,0,0,338.8, -1.4, -1.4,0,1,1024,1024,1024,1024,0,0,0,0,312.2,0,0,99,4.207,4.205,0,0,0,0,4.174,73.22,469.70637264215,3.608924,6,P-GPS,
10400,2023-12-22 19:56:42,38.7215251758151,-121.169326641864,3.608924,,,469.70637264215,3.608924,0,0.305011164616,2.55079732572,17,5,8.411,469.70637264215,3.608924,0,0.65363519152,0,0,0,338.7, -1.3, -1.8,0,1,1024,1024,1024,1024,0,0,0,0,312.2,0,0,99,4.207,4.205,0,0,0,0,4.174,73.22,469.70637264215,3.608924,6,P-GPS,
10500,2023-12-22 19:56:42,38.721525117433,-121.169326660375,3.608924,,,469.70637264215,3.608924,0,0.325416020912,2.57273958364,17,5,8.411,469.70637264215,3.608924,0,0.65363519152,0,0,0,338.8, -1.2, -1.8,0,1,1024,1024,1024,1024,0,0,0,0,312.2,0,0,99,4.207,4.205,0,0,0,0,4.174,73.22,469.70637264215,3.608924,6,P-GPS,
10600,2023-12-22 19:56:42,38.721525113727,-121.16932668968,3.608924,,,469.70637264215,3.608924,0,0.33133859328,2.58119102748,17,5,8.411,469.70637264215,3.608924,0,0.65363519152,0,0,0,338.9, -1.3, -1.7,0,1,1024,1024,1024,1024,0,0,0,0,312.2,0,0,99,4.207,4.205,0,0,0,0,4.174,73.22,469.70637264215,3.608924,6,P-GPS,
10700,2023-12-22 19:56:42,38.721525120506,-121.169326690574,3.608924,,,469.70637264215,3.608924,0,0.32948491868,2.5836779042,17,5,8.411,469.70637264215,3.608924,0,0.65363519152,0,0,0,338.9, -1.3, -1.7,0,1,1024,1024,1024,1024,0,0,0,0,312.2,0,0,99,4.207,4.205,0,0,0,0,4.174,73.22,469.70637264215,3.608924,6,P-GPS,
10800,2023-12-22 19:56:42,38.7215251322327,-121.169326685306,3.608924,,,469.70637264215,3.608924,0,0.325146992032,2.58820874424,17,5,8.411,469.70637264215,3.608924,0,0.65363519152,0,0,0,338.9, -1.3, -1.9,0,1,1024,1024,1024,1024,0,0,0,0,312.2,0,0,99,4.207,4.205,0,0,0,0,4.174,73.22,469.70637264215,3.608924,6,P-GPS,
10900,2023-12-22 19:56:43,38.7215251850046,-121.169326752548,3.608924,,,469.70637264215,3.608924,0,0.322090561488,2.61536097608,17,5,8.411,469.70637264215,3.608924,0,0.65363519152,0,0,0,338.8, -1.1, -1.8,0,1,1024,1024,1024,1024,0,0,0,0,312.2,0,0,99,4.207,4.205,0,0,0,0,4.174,73.22,469.70637264215,3.608924,6,P-GPS,
11000,2023-12-22 19:56:43,38.7215251860298,-121.16932681989,3.608924,,,469.70637264215,3.608924,0,0.33473098184,2.6345309242,17,5,8.411,469.70637264215,3.608924,0,0.65363519152,0,0,0,338.9, -1.1, -1.7,0,1,1024,1024,1024,1024,0,0,0,0,312.2,0,0,99,4.207,4.205,0,0,0,0,4.174,73.22,469.70637264215,3.608924,6,P-GPS,
11100,2023-12-22 19:56:43,38.7215251799884,-121.169326871172,3.608924,,,469.70637264215,3.608924,0,0.34651575912,2.6492947042,17,5,8.411,469.70637264215,3.608924,0,0.65363519152,0,0,0,339, -1.2, -1.4,0,1,1024,1024,1024,1024,0,0,0,0,312.2,0,0,99,4.207,4.205,0,0,0,0,4.174,73.22,469.70637264215,3.608924,6,P-GPS,
11200,2023-12-22 19:56:43,38.7215251717798,-121.169326918863,3.608924,,,469.70637264215,3.608924,0,0.35832678312,2.66319562328,17,5,8.411,469.70637264215,3.608924,0,0.65363519152,0,0,0,339, -1.1, -1.4,0,1,1024,1024,1024,1024,0,0,0,0,312.2,0,0,99,4.207,4.205,0,0,0,0,4.174,73.22,469.70637264215,3.608924,6,P-GPS,
11300,2023-12-22 19:56:43,38.7215250544277,-121.169326910254,3.608924,,,469.70637264215,3.608924,0,0.38750985492,2.70608276376,17,5,8.411,469.70637264215,3.608924,0,0.65363519152,0,0,0,339, -1.2, -1.3,0,1,1024,1024,1024,1024,0,0,0,0,312.2,0,0,99,4.207,4.207,0,0,0,0,4.174,73.22,469.70637264215,3.608924,6,P-GPS,
11400,2023-12-22 19:56:43,38.7215249945327,-121.169326947287,3.608924,,,469.70637264215,3.608924,0,0.41091864832,2.73034457556,17,5,8.411,469.70637264215,3.608924,0,0.65363519152,0,0,0,339, -1.1, -1.2,0,1,1024,1024,1024,1024,0,0,0,0,312.2,0,0,99,4.207,4.207,0,0,0,0,4.174,73.22,469.70637264215,3.608924,6,P-GPS,
11500,2023-12-22 19:56:43,38.7215249624943,-121.169327007101,3.608924,,,469.70637264215,3.608924,0,0.43090224476,2.75099746336,17,5,8.411,469.70637264215,3.608924,0,0.65363519152,0,0,0,339.1, -1.3, -1,0,1,1024,1024,1024,1024,0,0,0,0,312.2,0,0,99,4.207,4.207,0,0,0,0,4.174,73.22,469.70637264215,3.608924,6,P-GPS,
11600,2023-12-22 19:56:43,38.7215249411812,-121.169327074891,3.608924,,,469.70637264215,3.608924,0,0.44957022436,2.7718012698,17,5,8.411,469.70637264215,3.608924,0,0.65363519152,0,0,0,339.1, -1.4, -0.7,0,1,1024,1024,1024,1024,0,0,0,0,312.2,0,0,99,4.207,4.207,0,0,0,0,4.174,73.22,469.70637264215,3.608924,6,P-GPS,
11700,2023-12-22 19:56:43,38.7215249477809,-121.169327132519,3.608924,,,469.70637264215,3.608924,0,0.45907481784,2.78838263516,17,5,8.411,469.70637264215,3.608924,0,0.65363519152,0,0,0,339.1, -1.3, -0.8,0,1,1024,1024,1024,1024,0,0,0,0,312.2,0,0,99,4.207,4.207,0,0,0,0,4.174,73.22,469.70637264215,3.608924,6,P-GPS,
11800,2023-12-22 19:56:43,38.721525019638,-121.169327215478,3.608924,,,469.70637264215,3.608924,0,0.45808072332,2.82366806936,17,5,8.411,469.70637264215,3.608924,0,0.65363519152,0,0,0,339, -1, -1.3,0,1,1024,1024,1024,1024,0,0,0,0,312.2,0,0,99,4.207,4.207,0,0,0,0,4.174,73.22,469.70637264215,3.608924,6,P-GPS,
11900,2023-12-22 19:56:44,38.7215250141603,-121.169327254597,3.608924,,,469.70637264215,3.608924,0,0.46778872888,2.83498040568,17,5,8.411,469.70637264215,3.608924,0,0.65363519152,0,0,0,339.1, -0.9, -1.1,0,1,1024,1024,1024,1024,0,0,0,0,312.2,0,0,99,4.207,4.207,0,0,0,0,4.174,73.22,469.70637264215,3.608924,6,P-GPS,
12000,2023-12-22 19:56:44,38.7215250000962,-121.169327287985,3.608924,,,469.70637264215,3.608924,0,0.478346472,2.84578093096,17,5,8.411,469.70637264215,3.608924,0,0.65363519152,0,0,0,339.1, -0.7, -1.1,0,1,1024,1024,1024,1024,0,0,0,0,312.2,0,0,99,4.207,4.207,0,0,0,0,4.174,73.22,469.70637264215,3.608924,6,P-GPS,
12100,2023-12-22 19:56:44,38.7215250122628,-121.169327307583,3.608924,,,469.70637264215,3.608924,0,0.47976707572,2.85291019628,17,5,8.411,469.70637264215,3.608924,0,0.65363519152,0,0,0,339.1, -0.8, -1.3,0,1,1024,1024,1024,1024,0,0,0,0,312.2,0,0,99,4.207,4.207,0,0,0,0,4.174,73.22,469.70637264215,3.608924,6,P-GPS,
12200,2023-12-22 19:56:44,38.7215250163595,-121.169327306053,3.608924,,,469.70637264215,3.608924,0,0.4784777056,2.85446859528,17,5,8.411,469.70637264215,3.608924,0,0.65363519152,0,0,0,339.1, -0.7, -1.2,0,1,1024,1024,1024,1024,0,0,0,0,312.2,0,0,99,4.207,4.207,0,0,0,0,4.174,73.22,469.70637264215,3.608924,6,P-GPS,
12300,2023-12-22 19:56:44,38.7215250360006,-121.169327319837,3.608924,,,469.70637264215,3.608924,0,0.4770177318,2.86263788688,17,5,8.411,469.70637264215,3.608924,0,0.65363519152,0,0,0,339, -0.6, -1.3,0,1,1024,1024,1024,1024,0,0,0,0,312.2,0,0,99,4.206,4.205,0,0,0,0,4.096,73.22,469.70637264215,3.608924,6,P-GPS,
12400,2023-12-22 19:56:44,38.7215250556062,-121.169327330613,3.608924,,,469.70637264215,3.608924,0,0.47502298108,2.87042003936,17,5,8.411,469.70637264215,3.608924,0,0.65363519152,0,0,0,339.1, -0.6, -1.5,0,1,1024,1024,1024,1024,0,0,0,0,312.2,0,0,99,4.206,4.205,0,0,0,0,4.096,73.22,469.70637264215,3.608924,6,P-GPS,
12500,2023-12-22 19:56:44,38.7215250620956,-121.169327346823,3.608924,,,469.70637264215,3.608924,0,0.47725395228,2.8756070474,17,5,8.411,469.70637264215,3.608924,0,0.65363519152,0,0,0,339.1, -0.5, -1.7,0,1,1024,1024,1024,1024,0,0,0,0,312.2,0,0,99,4.206,4.205,0,0,0,0,4.096,73.22,469.70637264215,3.608924,6,P-GPS,
12600,2023-12-22 19:56:44,38.7215250594942,-121.169327401437,3.608924,,,469.70637264215,3.608924,0,0.49030841464,2.89118119488,17,5,8.411,469.70637264215,3.608924,0,0.65363519152,0,0,0,339, -0.6, -1.7,0,1,1024,1024,1024,1024,0,0,0,0,312.2,0,0,99,4.206,4.205,0,0,0,0,4.096,73.22,469.70637264215,3.608924,6,P-GPS,
12700,2023-12-22 19:56:44,38.7215250880102,-121.169327397583,3.608924,,,469.70637264215,3.608924,0,0.48336287636,2.90164379364,17,5,8.411,469.70637264215,3.608924,0,0.65363519152,0,0,0,339.1, -0.5, -1.5,0,1,1024,1024,1024,1024,0,0,0,0,312.2,0,0,99,4.206,4.205,0,0,0,0,4.096,73.22,469.70637264215,3.608924,6,P-GPS,
12800,2023-12-22 19:56:44,38.7215251239687,-121.16932738625,3.608924,,,469.70637264215,3.608924,0,0.47325788916,2.91515429276,17,5,8.411,469.70637264215,3.608924,0,0.65363519152,0,0,0,339.1, -0.3, -1.5,0,1,1024,1024,1024,1024,0,0,0,0,312.2,0,0,99,4.206,4.205,0,0,0,0,4.096,73.22,469.70637264215,3.608924,6,P-GPS,
12900,2023-12-22 19:56:45,38.7215251268637,-121.16932737313,3.608924,,,469.70637264215,3.608924,0,0.46957678668,2.91903552648,17,5,8.411,469.70637264215,3.608924,0,0.65363519152,0,0,0,339.1, -0.4, -1.4,0,1,1024,1024,1024,1024,0,0,0,0,312.2,0,0,99,4.206,4.205,0,0,0,0,4.096,73.22,469.70637264215,3.608924,6,P-GPS,
13000,2023-12-22 19:56:45,38.7215251593678,-121.169327303573,3.608924,,,469.70637264215,3.608924,0,0.44653544736,2.94211295504,17,5,8.411,469.70637264215,3.608924,0,0.65363519152,0,0,0,339.1, -0.6, -1.3,0,1,1024,1024,1024,1024,0,0,0,0,312.2,0,0,99,4.206,4.205,0,0,0,0,4.096,73.22,469.70637264215,3.608924,6,P-GPS,
13100,2023-12-22 19:56:45,38.7215251424304,-121.169327300738,3.608924,,,469.70637264215,3.608924,0,0.449393059,2.94834655104,17,5,8.411,469.70637264215,3.608924,0,0.65363519152,0,0,0,339.2, -0.4, -1.1,0,1,1024,1024,1024,1024,0,0,0,0,312.2,0,0,99,4.206,4.205,0,0,0,0,4.096,73.22,469.70637264215,3.608924,6,P-GPS,
13200,2023-12-22 19:56:45,38.7215251222866,-121.169327293683,3.608924,,,469.70637264215,3.608924,0,0.45202757352,2.95596466152,17,5,8.411,469.70637264215,3.608924,0,0.65363519152,0,0,0,339.1, -0.3, -1.2,0,1,1024,1024,1024,1024,0,0,0,0,312.2,0,0,99,4.206,4.205,0,0,0,0,4.096,73.22,469.70637264215,3.608924,6,P-GPS,
13300,2023-12-22 19:56:45,38.7215251048072,-121.169327320853,3.608924,,,469.70637264215,3.608924,0,0.46203413552,2.96599090856,17,5,8.418,469.70637264215,3.608924,0,0.65363519152,0,0,0,339.1, -0.3, -1.3,0,1,1024,1024,1024,1024,0,0,0,0,312.2,0,0,99,4.201,4.199,0,0,0,0,3.944,73.22,469.70637264215,3.608924,6,P-GPS,
13400,2023-12-22 19:56:45,38.7215250845331,-121.169327356342,3.608924,,,469.70637264215,3.608924,0,0.47455382096,2.978510594,17,5,8.418,469.70637264215,3.608924,0,0.65363519152,0,0,0,339.1, -0.2, -1.5,0,1,1024,1024,1024,1024,0,0,0,0,312.2,0,0,99,4.201,4.199,0,0,0,0,3.944,73.22,469.70637264215,3.608924,6,P-GPS,
13500,2023-12-22 19:56:45,38.7215250593411,-121.169327389831,3.608924,,,469.70637264215,3.608924,0,0.48767390012,2.99175206424,17,5,8.418,469.70637264215,3.608924,0,0.65363519152,0,0,0,339, 0, -1.6,0,1,1024,1024,1024,1024,0,0,0,0,312.2,0,0,99,4.201,4.199,0,0,0,0,3.944,73.22,469.70637264215,3.608924,6,P-GPS,
13600,2023-12-22 19:56:45,38.721525026247,-121.169327421977,3.937008,,,470.03445664215,3.608924,0,0.502214583,3.00690298336,17,5,8.418,470.03445664215,3.937008,0,0.65363519152,0,0,0,339, -0.3, -1.4,0,1,1024,1024,1024,1024,0,0,0,0,312.2,0,0,99,4.201,4.199,0,0,0,0,3.944,73.22,470.03445664215,3.937008,6,P-GPS,
13700,2023-12-22 19:56:45,38.7215250035563,-121.169327451434,3.937008,,,470.03445664215,3.608924,0,0.51389109256,3.0186844798,17,5,8.418,470.03445664215,3.937008,0,0.65363519152,0,0,0,339.1, -0.6, -1.3,0,1,1024,1024,1024,1024,0,0,0,0,312.2,0,0,99,4.201,4.199,0,0,0,0,3.944,73.22,470.03445664215,3.937008,6,P-GPS,
13800,2023-12-22 19:56:45,38.7215249819277,-121.169327473189,3.937008,,,470.03445664215,3.608924,0,0.5235892556,3.02871728852,17,5,8.418,470.03445664215,3.937008,0,0.65363519152,0,0,0,339, -0.3, -1.2,0,1,1024,1024,1024,1024,0,0,0,0,312.2,0,0,99,4.201,4.199,0,0,0,0,3.944,73.22,470.03445664215,3.937008,6,P-GPS,
13900,2023-12-22 19:56:46,38.7215249944374,-121.169327517933,3.937008,,,470.03445664215,3.608924,0,0.53108925584,3.04224747268,17,5,8.418,470.03445664215,3.937008,0,0.65363519152,0,0,0,339, -0.3, -1.7,0,1,1024,1024,1024,1024,0,0,0,0,312.2,0,0,99,4.201,4.199,0,0,0,0,3.944,73.22,470.03445664215,3.937008,6,P-GPS,
14000,2023-12-22 19:56:46,38.7215249700852,-121.169327502369,3.937008,,,470.03445664215,3.608924,0,0.53281825852,3.05217529452,17,5,8.418,470.03445664215,3.937008,0,0.65363519152,0,0,0,339, -0.3, -1.8,0,1,1024,1024,1024,1024,0,0,0,0,312.2,0,0,99,4.201,4.199,0,0,0,0,3.944,73.22,470.03445664215,3.937008,6,P-GPS,
14100,2023-12-22 19:56:46,38.7215249495204,-121.169327485123,3.937008,,,470.03445664215,3.608924,0,0.5334973924,3.06114183024,17,5,8.418,470.03445664215,3.937008,0,0.65363519152,0,0,0,339, -0.4, -1.7,0,1,1024,1024,1024,1024,0,0,0,0,312.2,0,0,99,4.201,4.199,0,0,0,0,3.944,73.22,470.03445664215,3.937008,6,P-GPS,
14200,2023-12-22 19:56:46,38.7215249274587,-121.16932747062,3.937008,,,470.03445664215,3.608924,0,0.53527888852,3.07018710612,17,5,8.418,470.03445664215,3.937008,0,0.65363519152,0,0,0,339.2, -0.7, -1.5,0,1,1024,1024,1024,1024,0,0,0,0,312.2,0,0,99,4.201,4.199,0,0,0,0,3.944,73.22,470.03445664215,3.937008,6,P-GPS,
14300,2023-12-22 19:56:46,38.7215249769414,-121.169327333622,3.937008,,,470.03445664215,3.608924,0,0.4937172074,3.11315954844,17,5,8.402,470.03445664215,3.937008,0,0.65363519152,0,0,0,339.1, -0.5, -1.4,0,1,1024,1024,1024,1024,0,0,0,0,312.2,0,0,99,4.2,4.198,0,0,0,0,4.062,73.4,470.03445664215,3.937008,6,P-GPS,
14400,2023-12-22 19:56:46,38.7215249688769,-121.16932727447,3.937008,,,470.03445664215,3.608924,0,0.48293308632,3.13025272484,17,5,8.402,470.03445664215,3.937008,0,0.65363519152,0,0,0,339.1, -0.4, -1.6,0,1,1024,1024,1024,1024,0,0,0,0,312.2,0,0,99,4.2,4.198,0,0,0,0,4.062,73.4,470.03445664215,3.937008,6,P-GPS,
14500,2023-12-22 19:56:46,38.7215249658863,-121.169327254834,3.937008,,,470.03445664215,3.608924,0,0.4795111702,3.13594826308,17,5,8.402,470.03445664215,3.937008,0,0.65363519152,0,0,0,339.1, -0.3, -1.7,0,1,1024,1024,1024,1024,0,0,0,0,312.2,0,0,99,4.2,4.198,0,0,0,0,4.062,73.4,470.03445664215,3.937008,6,P-GPS,
14600,2023-12-22 19:56:46,38.7215249595968,-121.169327250955,3.937008,,,470.03445664215,3.608924,0,0.48024279752,3.13849419492,17,5,8.402,470.03445664215,3.937008,0,0.65363519152,0,0,0,339.1, -0.3, -1.6,0,1,1024,1024,1024,1024,0,0,0,0,312.2,0,0,99,4.2,4.198,0,0,0,0,4.062,73.4,470.03445664215,3.937008,6,P-GPS,
14700,2023-12-22 19:56:46,38.7215250242355,-121.169327448689,3.937008,,,470.03445664215,3.608924,0,0.5087598588,3.19952109976,17,5,8.402,470.03445664215,3.937008,0,0.65363519152,0,0,0,339.1, -0.3, -1.3,0,1,1024,1024,1024,1024,0,0,0,0,312.2,0,0,98,4.2,4.198,0,0,0,0,4.062,73.4,470.03445664215,3.937008,6,P-GPS,
14800,2023-12-22 19:56:46,38.7215250197263,-121.169327524101,3.937008,,,470.03445664215,3.608924,0,0.52715224784,3.22104997184,17,5,8.402,470.03445664215,3.937008,0,0.65363519152,0,0,0,339.2, -0.2, -0.9,0,1,1024,1024,1024,1024,0,0,0,0,312.2,0,0,98,4.2,4.198,0,0,0,0,4.062,73.4,470.03445664215,3.937008,6,P-GPS,
14900,2023-12-22 19:56:47,38.7215250136746,-121.169327528984,3.937008,,,470.03445664215,3.608924,0,0.5295603844,3.22365823964,17,5,8.402,470.03445664215,3.937008,0,0.65363519152,0,0,0,339.3, -0.3, -0.7,0,1,1024,1024,1024,1024,0,0,0,0,312.2,0,0,98,4.2,4.198,0,0,0,0,4.062,73.4,470.03445664215,3.937008,6,P-GPS,
15000,2023-12-22 19:56:47,38.7215250078896,-121.169327505407,3.937008,,,470.03445664215,3.608924,0,0.52532153912,3.23069564144,17,5,8.402,470.03445664215,3.937008,0,0.65363519152,0,0,0,339.2, -0.1, -0.9,0,1,1024,1024,1024,1024,0,0,0,0,312.2,0,0,98,4.2,4.198,0,0,0,0,4.062,73.4,470.03445664215,3.937008,6,P-GPS,
15100,2023-12-22 19:56:47,38.7215250038848,-121.169327522753,3.937008,,,470.03445664215,3.608924,0,0.530183744,3.2358432794,17,5,8.402,470.03445664215,3.937008,0,0.65363519152,0,0,0,339.1, 0, -1.1,0,1,1024,1024,1024,1024,0,0,0,0,312.2,0,0,98,4.2,4.198,0,0,0,0,4.062,73.4,470.03445664215,3.937008,6,P-GPS,
15200,2023-12-22 19:56:47,38.7215250352389,-121.169327557229,3.937008,,,470.03445664215,3.608924,0,0.53171261544,3.25091545836,17,5,8.402,470.03445664215,3.937008,0,0.65363519152,0,0,0,339, -0.1, -1.3,0,1,1024,1024,1024,1024,0,0,0,0,312.2,0,0,98,4.2,4.198,0,0,0,0,4.062,73.4,470.03445664215,3.937008,6,P-GPS,
15300,2023-12-22 19:56:47,38.7215250289767,-121.169327555473,3.937008,,,470.03445664215,3.608924,0,0.5325787572,3.25325469728,17,5,8.396,470.03445664215,3.937008,0,0.65363519152,0,0,0,339, -0.2, -1.5,0,1,1024,1024,1024,1024,0,0,0,0,312.2,0,0,98,4.199,4.197,0,0,0,0,4.103,73.58,470.03445664215,3.937008,6,P-GPS,
15400,2023-12-22 19:56:47,38.7215250174029,-121.169327546464,3.937008,,,470.03445664215,3.608924,0,0.5328576286,3.25819564232,17,5,8.396,470.03445664215,3.937008,0,0.65363519152,0,0,0,339, -0.4, -1.3,0,1,1024,1024,1024,1024,0,0,0,0,312.2,0,0,98,4.199,4.197,0,0,0,0,4.103,73.58,470.03445664215,3.937008,6,P-GPS,
15500,2023-12-22 19:56:47,38.7215250073115,-121.169327527708,3.937008,,,470.03445664215,3.608924,0,0.53060697236,3.264681863,17,5,8.396,470.03445664215,3.937008,0,0.65363519152,0,0,0,339.1, -0.3, -0.9,0,1,1024,1024,1024,1024,0,0,0,0,312.2,0,0,98,4.199,4.197,0,0,0,0,4.103,73.58,470.03445664215,3.937008,6,P-GPS,
15600,2023-12-22 19:56:47,38.7215250312801,-121.169327456839,3.937008,,,470.03445664215,3.608924,0,0.50911747036,3.2866798952,17,5,8.396,470.03445664215,3.937008,0,0.65363519152,0,0,0,339, -0.3, -1.2,0,1,1024,1024,1024,1024,0,0,0,0,312.2,0,0,98,4.199,4.197,0,0,0,0,4.103,73.58,470.03445664215,3.937008,6,P-GPS,
15700,2023-12-22 19:56:47,38.7215249817746,-121.169327464239,3.937008,,,470.03445664215,3.608924,0,0.52159778572,3.3048557488,17,5,8.396,470.03445664215,3.937008,0,0.65363519152,0,0,0,339, -0.6, -1.6,0,1,1024,1024,1024,1024,0,0,0,0,312.2,0,0,98,4.199,4.197,0,0,0,0,4.103,73.58,470.03445664215,3.937008,6,P-GPS,
15800,2023-12-22 19:56:47,38.7215249156138,-121.169327485402,3.937008,,,470.03445664215,3.937008,0,0.54126970236,3.329724516,17,5,8.396,470.03445664215,3.937008,0,0.65363519152,0,0,0,339, -0.3, -1.7,0,1,1024,1024,1024,1024,0,0,0,0,312.2,0,0,98,4.199,4.197,0,0,0,0,4.103,73.58,470.03445664215,3.937008,6,P-GPS,
15900,2023-12-22 19:56:47,38.7215248759644,-121.169327490329,3.937008,,,470.03445664215,3.937008,0,0.55156825912,3.3442586372,17,5,8.396,470.03445664215,3.937008,0,0.65363519152,0,0,0,339, -0.4, -1.5,0,1,1024,1024,1024,1024,0,0,0,0,312.2,0,0,98,4.199,4.197,0,0,0,0,4.103,73.58,470.03445664215,3.937008,6,P-GPS,
16000,2023-12-22 19:56:48,38.7215247963372,-121.16932757952,3.937008,,,470.03445664215,3.937008,0,0.58973427084,3.3828413156,17,5,8.396,470.03445664215,3.937008,0,0.65363519152,0,0,0,339, -0.7, -1.5,0,1,1024,1024,1024,1024,0,0,0,0,312.2,0,0,98,4.199,4.197,0,0,0,0,4.103,73.58,470.03445664215,3.937008,6,P-GPS,
16100,2023-12-22 19:56:48,38.7215247367231,-121.169327578546,3.937008,,,470.03445664215,3.937008,0,0.60393374636,3.4045932848,17,5,8.396,470.03445664215,3.937008,0,0.65363519152,0,0,0,339.1, -0.7, -1.5,0,1,1024,1024,1024,1024,0,0,0,0,312.2,0,0,98,4.199,4.197,0,0,0,0,4.103,73.58,470.03445664215,3.937008,6,P-GPS,
16200,2023-12-22 19:56:48,38.7215246644638,-121.169327580587,3.937008,,,470.03445664215,3.937008,0,0.62239503304,3.4309712384,17,5,8.396,470.03445664215,3.937008,0,0.65363519152,0,0,0,339.2, -0.9, -1.1,0,1,1024,1024,1024,1024,0,0,0,0,312.2,0,0,98,4.199,4.197,0,0,0,0,4.103,73.58,470.03445664215,3.937008,6,P-GPS,
16300,2023-12-22 19:56:48,38.7215246294494,-121.169327591696,3.937008,,,470.03445664215,3.937008,0,0.63358597828,3.4441274068,17,5,8.394,470.03445664215,3.937008,0,0.65363519152,0,0,0,339.2, -1.1, -1,0,1,1024,1024,1024,1024,0,0,0,0,312.2,0,0,98,4.198,4.196,0,0,0,0,4.038,73.58,470.03445664215,3.937008,6,P-GPS,
16400,2023-12-22 19:56:48,38.7215246315875,-121.169327616389,3.937008,,,470.03445664215,3.937008,0,0.63806104404,3.4512140212,17,5,8.394,470.03445664215,3.937008,0,0.65363519152,0,0,0,339.1, -0.8, -1.2,0,1,1253,1024,1024,1024,35,0,0,0,312.2,0,0,98,4.198,4.196,0,0,0,0,4.038,73.58,470.03445664215,3.937008,6,P-GPS,
16500,2023-12-22 19:56:48,38.7215246019718,-121.169327589636,3.937008,,,470.03445664215,3.937008,0,0.64026248768,3.4644358064,17,5,8.394,470.03445664215,3.937008,0,0.65363519152,0,0,0,338.9, -0.5, -1.5,0,1,1684,1024,1024,1024,100,0,0,0,312.2,0,0,98,4.198,4.196,0,0,0,0,4.038,73.58,470.03445664215,3.937008,6,P-GPS,
16600,2023-12-22 19:56:48,38.7215245706145,-121.169327560851,3.937008,,,470.03445664215,3.937008,0,0.64278873448,3.4784778016,17,5,8.394,470.03445664215,3.937008,0,0.65363519152,0,0,0,339, -8.2, -1.3,0,1,1684,1024,1024,1024,100,0,0,0,312.2,0,0,98,4.198,4.196,0,0,0,0,4.038,73.58,470.03445664215,3.937008,6,P-GPS,
16700,2023-12-22 19:56:48,38.7215246237926,-121.1693276401,3.937008,,,470.03445664215,3.937008,0.223694,0.64488847208,3.5082350204,17,5,8.394,470.03445664215,3.937008,0.223694,0.65363519152,0.223694,0,0,339.3, -15.6, -1.2,0,1,1684,1024,1024,1024,100,0,0,0,312.2,0,0,98,4.198,4.196,0,0,0,0,4.038,73.58,470.03445664215,3.937008,6,P-GPS,
16800,2023-12-22 19:56:48,38.7215248619036,-121.169327832948,3.937008,,,470.03445664215,3.608924,0.9171454,0.6322014638,3.6110237376,17,5,8.394,470.03445664215,3.937008,0.9171454,0.65363519152,0.894776,-0.223694,0,339.4, -17.7, -0.9,0,1,1684,1024,1024,1024,100,0,0,0,312.2,0,0,98,4.198,4.196,0,0,0,0,4.038,73.58,470.03445664215,3.937008,6,P-GPS,
16900,2023-12-22 19:56:49,38.7215253122533,-121.169328109985,3.937008,,,470.03445664215,3.608924,1.4092722,0.62951773668,3.7932743996,17,5,8.394,470.03445664215,3.937008,1.4092722,0.65363519152,1.342164,-0.447388,0,339.3, -17.7, -0.8,0,1,1684,1024,1024,1024,100,0,0,0,312.2,0,0,98,4.198,4.196,0,0,0,0,4.038,73.58,470.03445664215,3.937008,6,P-GPS,
17000,2023-12-22 19:56:49,38.7215260240745,-121.169328499336,3.608924,,,469.70637264215,3.937008,2.125093,0.7117946422,4.07562349,17,5,8.394,470.03445664215,3.937008,2.125093,0.7117946422,2.013246,-0.671082,0,339.3, -17.4, -1,0,1,1684,1024,1024,1024,100,0,0,0,312.2,0,0,98,4.198,4.196,0,0,0,0,4.038,73.58,469.70637264215,3.608924,6,P-GPS,
17100,2023-12-22 19:56:49,38.721526923628,-121.169328993183,3.608924,,,469.70637264215,3.937008,2.8185444,0.93545606668,4.4326773072,17,5,8.394,470.03445664215,3.937008,2.8185444,0.93545606668,2.684328,-0.894776,0,339.2, -16.9, -1.7,0,1,1684,1024,1024,1024,100,0,0,0,312.2,0,0,98,4.198,4.196,0,0,0,0,4.038,73.58,469.70637264215,3.608924,6,P-GPS,
17200,2023-12-22 19:56:49,38.7215280804471,-121.16932963015,3.608924,,,469.70637264215,3.937008,3.5343652,1.31329400528,4.8920277156,17,5,8.394,470.03445664215,3.937008,3.5343652,1.31329400528,3.35541,-1.11847,0,339.2, -16.6, -1.3,0,1,1684,1024,1024,1024,100,0,0,0,312.2,0,0,98,4.198,4.196,0,0,0,0,4.038,73.58,469.70637264215,3.608924,6,P-GPS,
17300,2023-12-22 19:56:49,38.721529747603,-121.169330590609,3.608924,,,469.70637264215,3.937008,3.5343652,1.92950793576,5.5589240624,17,5,8.392,470.03445664215,3.937008,3.5343652,1.92950793576,3.802798,-1.342164,0,339.1, -16.2, -1.2,0,1,1684,1024,1024,1024,100,0,0,0,312.2,0,0,98,4.188,4.185,0,0,0,0,4.042,73.58,469.70637264215,3.608924,6,P-GPS,
17400,2023-12-22 19:56:49,38.7215314820514,-121.169331508364,3.608924,,,469.70637264215,3.937008,4.5186188,2.58317593568,6.2435369452,17,5,8.392,470.03445664215,3.937008,4.5186188,2.58317593568,4.250186,-1.565858,0,339.2, -16.1, -1,0,1,1684,1024,1024,1024,100,0,0,0,312.2,0,0,98,4.188,4.185,0,0,0,0,4.042,73.58,469.70637264215,3.608924,6,P-GPS,
17500,2023-12-22 19:56:49,38.7215333280928,-121.169332441772,3.608924,,,469.70637264215,3.937008,5.033115,3.2858596852,6.9675855248,17,5,8.392,470.03445664215,3.937008,5.033115,3.2858596852,4.697574,-1.789552,0,339.1, -16, -1,0,1,1684,1024,1024,1024,100,0,0,0,312.2,0,0,98,4.188,4.185,0,0,0,0,4.042,73.58,469.70637264215,3.608924,6,P-GPS,
17600,2023-12-22 19:56:49,38.7215354417813,-121.169333491767,3.608924,,,469.70637264215,3.937008,5.5252418,4.0967520996,7.7946524804,17,5,8.392,470.03445664215,3.937008,5.5252418,4.0967520996,5.144962,-2.013246,0,339.1, -16, -1.1,0,1,1684,1024,1024,1024,100,0,0,0,312.2,0,0,98,4.188,4.185,0,0,0,0,4.042,73.58,469.70637264215,3.608924,6,P-GPS,
17700,2023-12-22 19:56:49,38.7215379690523,-121.169334766483,3.608924,,,469.70637264215,3.937008,5.9502604,5.0758859892,8.7855317772,17,5,8.392,470.03445664215,3.937008,5.9502604,5.0758859892,5.59235,-2.013246,0,339.2, -16.1, -0.9,0,1,1684,1024,1024,1024,100,0,0,0,312.2,0,0,98,4.188,4.185,0,0,0,0,4.042,73.58,469.70637264215,3.608924,6,P-GPS,
17800,2023-12-22 19:56:49,38.7215404417371,-121.169336037384,3.608924,,,469.70637264215,4.265092,6.4423872,6.0407810332,9.757546244,17,5,8.392,470.03445664215,3.937008,6.4423872,6.0407810332,6.039738,-2.23694,0,339.2, -16.2, -1,0,1,1684,1024,1024,1024,100,0,0,0,312.2,0,0,98,4.188,4.185,0,0,0,0,4.042,73.58,469.70637264215,3.608924,6,P-GPS,
17900,2023-12-22 19:56:50,38.7215429895834,-121.169337324213,3.28084,,,469.37828864215,4.265092,6.7331894,7.0340881516,10.7566932576,17,5,8.392,470.03445664215,3.937008,6.7331894,7.0340881516,6.263432,-2.460634,0,339.2, -16.5, -1,0,1,1684,1024,1024,1024,100,0,0,0,312.2,0,0,98,4.188,4.185,0,0,0,0,4.042,73.58,469.37828864215,3.28084,6,P-GPS,
18000,2023-12-22 19:56:50,38.7215458354457,-121.169338742457,3.28084,,,469.37828864215,4.593176,7.158208,8.1428152212,11.8707024796,17,5,8.392,470.03445664215,3.937008,7.158208,8.1428152212,6.71082,-2.460634,0,339.2, -16.6, -1.2,0,1,1684,1024,1024,1024,100,0,0,0,312.2,0,0,98,4.188,4.185,0,0,0,0,4.042,73.58,469.37828864215,3.28084,6,P-GPS,
18100,2023-12-22 19:56:50,38.7215488190628,-121.169340192152,3.28084,,,469.37828864215,4.593176,7.6503348,9.30200161,13.0348757452,17,5,8.392,470.03445664215,3.937008,7.6503348,9.30200161,7.158208,-2.684328,0,339.3, -16.4, -1.2,0,1,1684,1024,1024,1024,100,0,0,0,312.2,0,0,98,4.188,4.185,0,0,0,0,4.042,73.58,469.37828864215,3.28084,6,P-GPS,
18200,2023-12-22 19:56:50,38.7215519110465,-121.169341709276,3.28084,,,469.37828864215,4.92126,7.8516594,10.506233932,14.2428154164,17,5,8.392,470.03445664215,3.937008,7.8516594,10.506233932,7.381902,-2.684328,0,339.3, -16.7, -1.6,0,1,1684,1024,1024,1024,100,0,0,0,312.2,0,0,98,4.188,4.185,0,0,0,0,4.042,73.58,469.37828864215,3.28084,6,P-GPS,
18300,2023-12-22 19:56:50,38.7215549376692,-121.169343205039,3.28084,,,469.37828864215,4.92126,8.3437862,11.6870410564,15.4263128296,17,5,8.373,470.03445664215,3.937008,8.3437862,11.6870410564,7.82929,-2.908022,0,339.3, -16.7, -1.4,0,1,1684,1024,1024,1024,100,0,0,0,312.2,0,0,98,4.192,4.187,0,0,0,0,4.138,73.58,469.37828864215,3.28084,6,P-GPS,
18400,2023-12-22 19:56:50,38.7215582442085,-121.169344845158,3.28084,,,469.37828864215,5.249344,8.6345884,12.9783140636,16.7199152332,17,5,8.373,470.03445664215,3.937008,8.6345884,12.9783140636,8.052984,-3.131716,0,339.3, -16.7, -1.3,0,1,1684,1024,1024,1024,100,0,0,0,312.2,0,0,98,4.192,4.187,0,0,0,0,4.138,73.58,469.37828864215,3.28084,6,P-GPS,
18500,2023-12-22 19:56:50,38.7215616046199,-121.169346509611,3.28084,,,469.37828864215,5.249344,9.059607,14.2907484888,18.0343181624,17,5,8.373,470.03445664215,3.937008,9.059607,14.2907484888,8.500372,-3.131716,0,339.3, -16.3, -1.3,0,1,1684,1024,1024,1024,100,0,0,0,312.2,0,0,98,4.192,4.187,0,0,0,0,4.138,73.58,469.37828864215,3.28084,6,P-GPS,
18600,2023-12-22 19:56:50,38.7215653032103,-121.169348351162,3.28084,,,469.37828864215,5.249344,9.3504092,15.7367787188,19.4819888124,17,5,8.373,470.03445664215,3.937008,9.3504092,15.7367787188,8.724066,-3.35541,0,339.7, -16.1, -1.1,0,1,1684,1024,1024,1024,100,0,0,0,312.2,0,0,98,4.192,4.187,0,0,0,0,4.138,73.58,469.37828864215,3.28084,6,P-GPS,
