time(millisecond),datetime(utc),latitude,longitude,height_above_takeoff(feet),height_above_ground_at_drone_location(feet),ground_elevation_at_drone_location(feet),altitude_above_seaLevel(feet),height_sonar(feet),speed(mph),distance(feet),mileage(feet),satellites,gpslevel,voltage(v),max_altitude(feet),max_ascent(feet),max_speed(mph),max_distance(feet), xSpeed(mph), ySpeed(mph), zSpeed(mph), compass_heading(degrees), pitch(degrees), roll(degrees),isPhoto,isVideo,rc_elevator,rc_aileron,rc_throttle,rc_rudder,rc_elevator(percent),rc_aileron(percent),rc_throttle(percent),rc_rudder(percent),gimbal_heading(degrees),gimbal_pitch(degrees),gimbal_roll(degrees),battery_percent,voltageCell1,voltageCell2,voltageCell3,voltageCell4,voltageCell5,voltageCell6,current(A),battery_temperature(f),altitude(feet),ascent(feet),flycStateRaw,flycState,message
0,2024-01-04 22:19:40,38.719605502344,-121.167900841426,0,Available with any HD 360 subscription,Available with any HD 360 subscription,473.18407518126,0.328084,0,0,0,16,4,0,473.18407518126,0,0,0,0,0,0,32.2, 1.4, 2.5,0,1,1024,1024,1024,1024,0,0,0,0,18.6,0,0,99,4.299,4.3,0,0,0,0,0,76.1,473.18407518126,0,41,Motors_Started,
100,2024-01-04 22:19:41,38.7196055090597,-121.167900846405,0,,,473.18407518126,0.328084,0,0.00283068250528,0.00283068250528,16,4,0,473.18407518126,0,0,0.00283068250528,0,0,0,32.2, 1.4, 2.5,0,1,1024,1024,1024,1024,0,0,0,0,18.5,0,0,99,4.299,4.3,0,0,0,0,0,76.1,473.18407518126,0,41,Motors_Started,
200,2024-01-04 22:19:41,38.7196053722183,-121.167900806201,0,,,473.18407518126,0.328084,0,0.0485236236,0.054052167084,16,4,0,473.18407518126,0,0,0.0485236236,0,0,0,32.2, 1.4, 2.6,0,1,1024,1024,1024,1024,0,0,0,0,18.6,0,0,99,4.299,4.3,0,0,0,0,0,76.1,473.18407518126,0,41,Motors_Started,
300,2024-01-04 22:19:41,38.7196053587543,-121.167900761413,0,,,473.18407518126,0.328084,0,0.057125657996,0.067715225264,16,4,0,473.18407518126,0,0,0.057125657996,0,0,0,32.2, 1.4, 2.5,0,1,1024,1024,1024,1024,0,0,0,0,18.5,0,0,99,4.299,4.3,0,0,0,0,0,76.1,473.18407518126,0,41,Motors_Started,
400,2024-01-04 22:19:41,38.7196053437791,-121.167900733514,0,,,473.18407518126,0.328084,0,0.0655019706,0.077354661268,16,4,0,473.18407518126,0,0,0.0655019706,0,0,0,32.2, 1.4, 2.5,0,1,1024,1024,1024,1024,0,0,0,0,18.5,0,0,99,4.299,4.3,0,0,0,0,0,76.1,473.18407518126,0,41,Motors_Started,
500,2024-01-04 22:19:41,38.7196053292176,-121.167900722818,0,,,473.18407518126,0.328084,0,0.07162237762,0.083478021044,16,4,0,473.18407518126,0,0,0.07162237762,0,0,0,32.2, 1.3, 2.5,0,1,1024,1024,1024,1024,0,0,0,0,18.5,0,0,99,4.299,4.3,0,0,0,0,0,76.1,473.18407518126,0,41,Motors_Started,
600,2024-01-04 22:19:41,38.7196053396885,-121.167900719921,0,,,473.18407518126,0.328084,0,0.068688650492,0.087386485736,16,4,0,473.18407518126,0,0,0.07162237762,0,0,0,32.2, 1.4, 2.5,0,1,1024,1024,1024,1024,0,0,0,0,18.5,0,0,99,4.299,4.3,0,0,0,0,0,76.1,473.18407518126,0,41,Motors_Started,
700,2024-01-04 22:19:41,38.7196053881836,-121.167900769656,0,,,473.18407518126,0.328084,0,0.046392061852,0.110046919532,16,4,0,473.18407518126,0,0,0.07162237762,0,0,0,32.2, 1.4, 2.5,0,1,1024,1024,1024,1024,0,0,0,0,18.6,0,0,99,4.299,4.3,0,0,0,0,0,76.1,473.18407518126,0,41,Motors_Started,
800,2024-01-04 22:19:41,38.719605413597,-121.167900775618,0,,,473.18407518126,0.328084,0,0.037407809596,0.119473100936,16,4,0,473.18407518126,0,0,0.07162237762,0,0,0,32.2, 1.4, 2.6,0,1,1024,1024,1024,1024,0,0,0,0,18.6,0,0,99,4.299,4.3,0,0,0,0,0,76.1,473.18407518126,0,41,Motors_Started,
900,2024-01-04 22:19:41,38.7196054226545,-121.1679007838,0,,,473.18407518126,0.328084,0,0.033382875084,0.123515751984,16,4,0,473.18407518126,0,0,0.07162237762,0,0,0,32.2, 1.4, 2.6,0,1,1024,1024,1024,1024,0,0,0,0,18.6,0,0,99,4.299,4.3,0,0,0,0,0,76.1,473.18407518126,0,41,Motors_Started,"Setting new Return-To-Home altitude to 100m (328 ft). Data Recorder File Index is 21. Setting new Maximum Flight Altitude to 500m (1640 ft)"
1000,2024-01-04 22:19:41,38.7196054247193,-121.167900791776,0,,,473.18407518126,0.328084,0,0.031652067942,0.125908140512,16,4,0,473.18407518126,0,0,0.07162237762,0,0,0,32.2, 1.4, 2.5,0,1,1024,1024,1024,1024,0,0,0,0,18.5,0,0,99,4.299,4.3,0,0,0,0,0,76.1,473.18407518126,0,41,Motors_Started,
1100,2024-01-04 22:19:42,38.7196053834545,-121.167900846187,0,,,473.18407518126,0.328084,0,0.043397967268,0.14750820682,16,4,8.614,473.18407518126,0,0,0.07162237762,0,0,0,32.2, 1.4, 2.5,0,1,1024,1024,1024,1024,0,0,0,0,18.6,0,0,99,4.299,4.3,0,0,0,0,0.986,76.1,473.18407518126,0,11,AutoTakeoff,
1200,2024-01-04 22:19:42,38.7196053780579,-121.167900855099,0,,,473.18407518126,0.328084,0,0.045512468648,0.150719493012,16,4,8.614,473.18407518126,0,0,0.07162237762,0,0,0,32.2, 1.3, 2.5,0,1,1024,1024,1024,1024,0,0,0,0,18.6,0,0,99,4.299,4.3,0,0,0,0,0.986,76.1,473.18407518126,0,11,AutoTakeoff,
1300,2024-01-04 22:19:42,38.7196053723779,-121.167900862606,0,,,473.18407518126,0.328084,0,0.047799870296,0.153696527228,16,4,8.614,473.18407518126,0,0,0.07162237762,0,0,0,32.2, 1.2, 2.5,0,1,1024,1024,1024,1024,0,0,0,0,18.6,0,0,99,4.299,4.3,0,0,0,0,0.986,76.1,473.18407518126,0,11,AutoTakeoff,
1400,2024-01-04 22:19:42,38.7196053906751,-121.167900844106,0,,,473.18407518126,0.328084,0,0.040749345136,0.162199152172,16,4,8.614,473.18407518126,0,0,0.07162237762,0,0,0,32.4, 1.2, 2.5,0,1,1024,1024,1024,1024,0,0,0,0,18.6,0,0,99,4.299,4.3,0,0,0,0,0.986,76.1,473.18407518126,0,11,AutoTakeoff,
1500,2024-01-04 22:19:42,38.7196054866067,-121.167900701795,0,,,473.18407518126,0.328084,0,0.040160106272,0.215735571208,16,4,8.614,473.18407518126,0,0,0.07162237762,0,0,0,32.3, 0.7, 2,0,1,1024,1024,1024,1024,0,0,0,0,18.6,0,0,99,4.299,4.3,0,0,0,0,0.986,76.1,473.18407518126,0,11,AutoTakeoff,
1600,2024-01-04 22:19:42,38.719605504005,-121.167900654765,0,,,473.18407518126,0.328084,0,0.053138453144,0.230551844648,16,4,8.614,473.18407518126,0,0,0.07162237762,0,0,-0.223694,32.1, -1.1, -0.5,0,1,1024,1024,1024,1024,0,0,0,0,18.6,0,0,99,4.299,4.3,0,0,0,0,0.986,76.1,473.18407518126,0,11,AutoTakeoff,
1700,2024-01-04 22:19:42,38.7196055185047,-121.167900633296,0,,,473.18407518126,0.328084,0,0.0595390439,0.238634850156,16,4,8.614,473.18407518126,0,0,0.07162237762,0,0,-0.447388,31.9, -0.6, -1.2,0,1,1024,1024,1024,1024,0,0,0,0,18.6,0,0,99,4.299,4.3,0,0,0,0,0.986,76.1,473.18407518126,0,11,AutoTakeoff,
1800,2024-01-04 22:19:42,38.7196055550111,-121.167900610341,0,,,473.18407518126,0.328084,0,0.068529857836,0.253470808636,16,4,8.614,473.18407518126,0,0,0.07162237762,0,0,-0.894776,31.9, 0.7, -1.3,0,1,1024,1024,1024,1024,0,0,0,0,18.6,0,0,99,4.299,4.3,0,0,0,0,0.986,76.1,473.18407518126,0,11,AutoTakeoff,
1900,2024-01-04 22:19:42,38.7196055555908,-121.167900688231,0.328084,,,473.51215918126,0.656168,0,0.047740159008,0.275644037692,16,4,8.614,473.51215918126,0.328084,0,0.07162237762,0,0,-1.11847,32, 1.5, 0.1,0,1,1024,1024,1024,1024,0,0,0,0,18.6,0,0,99,4.299,4.3,0,0,0,0,0.986,76.1,473.51215918126,0.328084,11,AutoTakeoff,
2000,2024-01-04 22:19:42,38.7196055835838,-121.16790065965,0.328084,,,473.51215918126,0.656168,0,0.05963254784,0.288701780892,16,4,8.614,473.51215918126,0.328084,0,0.07162237762,0,0,-1.342164,32, 1.1, 0.4,0,1,1024,1024,1024,1024,0,0,0,0,18.6,0,0,99,4.299,4.3,0,0,0,0,0.986,76.1,473.51215918126,0.328084,11,AutoTakeoff,
2100,2024-01-04 22:19:43,38.7196055950057,-121.16790059292,0.656168,,,473.84024318126,0.984252,0,0.078403545816,0.308148959992,16,4,8.574,473.84024318126,0.656168,0,0.078403545816,0,0,-1.565858,32, 1, 0,0,1,1024,1024,1024,1024,0,0,0,0,18.6,0,0,99,4.229,4.228,0,0,0,0,1.811,76.1,473.84024318126,0.656168,11,AutoTakeoff,
2200,2024-01-04 22:19:43,38.7196056145829,-121.167900505875,0.656168,,,473.84024318126,0.984252,0,0.103926512512,0.33393701856,16,4,8.574,473.84024318126,0.656168,0,0.103926512512,0,0,-1.789552,32.1, 1.7, -0.1,0,1,1024,1024,1024,1024,0,0,0,0,18.6,0,0,99,4.229,4.228,0,0,0,0,1.811,76.1,473.84024318126,0.656168,11,AutoTakeoff,
2300,2024-01-04 22:19:43,38.7196056450315,-121.167900400031,0.984252,,,474.16832718126,1.312336,0,0.136005909864,0.36604988048,16,4,8.574,474.16832718126,0.984252,0,0.136005909864,0,0,-2.013246,32.1, 1.5, -0.3,0,1,1024,1024,1024,1024,0,0,0,0,18.6,0,0,99,4.229,4.228,0,0,0,0,1.811,76.1,474.16832718126,0.984252,11,AutoTakeoff,
2400,2024-01-04 22:19:43,38.7196056462431,-121.167900220668,1.312336,,,474.49641118126,1.64042,0,0.184340228996,0.4171095934,16,4,8.574,474.49641118126,1.312336,0,0.184340228996,0,0,-2.013246,32.1, 1.6, -0.1,0,1,1024,1024,1024,1024,0,0,0,0,18.6,0,0,99,4.229,4.228,0,0,0,0,1.811,76.1,474.49641118126,1.312336,11,AutoTakeoff,
2500,2024-01-04 22:19:43,38.7196055175243,-121.167900258556,1.64042,,,474.82449518126,1.968504,0,0.166013128672,0.46529529048,16,4,8.574,474.82449518126,1.64042,0,0.184340228996,0,0,-2.23694,32, 1.7, -0.1,0,1,1024,1024,1024,1024,0,0,0,0,18.6,0,0,99,4.229,4.228,0,0,0,0,1.811,76.1,474.82449518126,1.64042,11,AutoTakeoff,
2600,2024-01-04 22:19:43,38.7196054336595,-121.167900206253,1.968504,,,475.15257918126,2.296588,0,0.1825377355,0.49932088212,16,4,8.574,475.15257918126,1.968504,0,0.184340228996,0,0,-2.23694,32.1, 2.3, -0.2,0,1,1024,1024,1024,1024,0,0,0,0,18.6,0,0,99,4.229,4.228,0,0,0,0,1.811,76.1,475.15257918126,1.968504,11,AutoTakeoff,
2700,2024-01-04 22:19:43,38.7196053954301,-121.167900045999,2.296588,,,475.48066318126,2.624672,0,0.229762802628,0.54702429572,16,4,8.574,475.48066318126,2.296588,0,0.229762802628,0,0,-2.23694,32.1, 2.1, -0.3,0,1,1024,1024,1024,1024,0,0,0,0,18.5,0,0,99,4.229,4.228,0,0,0,0,1.811,76.1,475.48066318126,2.296588,11,AutoTakeoff,
2800,2024-01-04 22:19:43,38.7196051860448,-121.16789989774,2.624672,,,475.80874718126,2.952756,0,0.292370088096,0.6343012014,16,4,8.574,475.80874718126,2.624672,0,0.292370088096,0,0,-2.013246,32.1, 1.4, -0.2,0,1,1024,1024,1024,1024,0,0,0,0,18.6,0,0,99,4.229,4.228,0,0,0,0,1.811,76.1,475.80874718126,2.624672,6,P-GPS,"Home Point updated. RTH altitude adjusted to 100 m (Code: 120852)"
2900,2024-01-04 22:19:43,38.7196048848576,-121.167899943953,2.952756,,,476.13683118126,3.28084,0,0.34062337048,0.74497377712,16,4,8.574,476.13683118126,2.952756,0,0.34062337048,0,0,-1.789552,32.2, 1.3, -0.1,0,1,1024,1024,1024,1024,0,0,0,0,18.5,0,0,99,4.229,4.228,0,0,0,0,1.811,76.1,476.13683118126,2.952756,6,P-GPS,
3000,2024-01-04 22:19:44,38.7196046103019,-121.167900000406,3.28084,,,476.46491518126,3.608924,0.223694,0.40402888432,0.84642719244,16,5,8.574,476.46491518126,3.28084,0.223694,0.40402888432,-0.223694,0,-1.11847,32.2, 1.1, -0.1,0,1,1024,1024,1024,1024,0,0,0,0,18.6,0,0,99,4.229,4.228,0,0,0,0,1.811,76.1,476.46491518126,3.28084,6,P-GPS,
3100,2024-01-04 22:19:44,38.7196043497574,-121.167900067698,3.28084,,,476.46491518126,3.608924,0.223694,0.47470802044,0.94339569948,16,5,8.42,476.46491518126,3.28084,0.223694,0.47470802044,-0.223694,0,-0.671082,32.1, 0.9, -0.4,0,1,1024,1024,1024,1024,0,0,0,0,18.6,0,0,99,4.219,4.216,0,0,0,0,4.503,76.1,476.46491518126,3.28084,6,P-GPS,
3200,2024-01-04 22:19:44,38.719603845767,-121.167900314282,3.28084,,,476.46491518126,3.608924,0.223694,0.62274936376,1.14021985276,16,5,8.42,476.46491518126,3.28084,0.223694,0.62274936376,-0.223694,0,-0.223694,32.1, 0.5, -0.8,0,1,1024,1024,1024,1024,0,0,0,0,18.5,0,0,99,4.219,4.216,0,0,0,0,4.503,76.1,476.46491518126,3.28084,6,P-GPS,
3300,2024-01-04 22:19:44,38.7196036624563,-121.167900315424,3.608924,,,476.79299918126,3.608924,0.223694,0.6877788934,1.20709977616,16,5,8.42,476.79299918126,3.608924,0.223694,0.6877788934,-0.223694,0,0,32.2, 0.3, -1,0,1,1024,1024,1024,1024,0,0,0,0,18.5,0,0,99,4.219,4.216,0,0,0,0,4.503,76.1,476.79299918126,3.608924,6,P-GPS,
3400,2024-01-04 22:19:44,38.7196035260578,-121.167900299831,3.608924,,,476.79299918126,3.608924,0.223694,0.73734582412,1.25706368852,16,5,8.42,476.79299918126,3.608924,0.223694,0.73734582412,-0.223694,0,0,32.1, 0.2, -1,0,1,1024,1024,1024,1024,0,0,0,0,18.6,0,0,99,4.219,4.216,0,0,0,0,4.503,76.1,476.79299918126,3.608924,6,P-GPS,
3500,2024-01-04 22:19:44,38.7196034264589,-121.167900263909,3.608924,,,476.79299918126,3.608924,0.223694,0.77502299068,1.29481303356,16,5,8.42,476.79299918126,3.608924,0.223694,0.77502299068,-0.223694,0,0,32.1, 0.1, -1,0,1,1024,1024,1024,1024,0,0,0,0,18.5,0,0,99,4.219,4.216,0,0,0,0,4.503,76.1,476.79299918126,3.608924,6,P-GPS,
3600,2024-01-04 22:19:44,38.7196035519924,-121.167900142187,3.608924,,,476.79299918126,3.608924,0.223694,0.73889766144,1.35224413776,16,5,8.42,476.79299918126,3.608924,0.223694,0.77502299068,-0.223694,0,0,32, 0.1, -1,0,1,1024,1024,1024,1024,0,0,0,0,18.5,0,0,99,4.219,4.216,0,0,0,0,4.503,76.1,476.79299918126,3.608924,6,P-GPS,
3700,2024-01-04 22:19:44,38.7196034530808,-121.167900150847,3.608924,,,476.79299918126,3.608924,0.223694,0.77308401424,1.38841539876,16,5,8.42,476.79299918126,3.608924,0.223694,0.77502299068,-0.223694,0,0,31.9, 0, -1.1,0,1,1024,1024,1024,1024,0,0,0,0,18.5,0,0,99,4.219,4.216,0,0,0,0,4.503,76.1,476.79299918126,3.608924,6,P-GPS,
3800,2024-01-04 22:19:44,38.7196034122589,-121.167900191339,3.608924,,,476.79299918126,3.937008,0,0.78469818784,1.4072507012,16,5,8.42,476.79299918126,3.608924,0.223694,0.78469818784,0,0,0,31.8, 0, -1.2,0,1,1024,1024,1024,1024,0,0,0,0,18.6,0,0,99,4.219,4.216,0,0,0,0,4.503,76.1,476.79299918126,3.608924,6,P-GPS,
3900,2024-01-04 22:19:44,38.7196034286736,-121.167900272314,3.608924,,,476.79299918126,3.937008,0,0.77372705888,1.43106631876,16,5,8.42,476.79299918126,3.608924,0.223694,0.78469818784,0,0,0,31.7, 0, -1.2,0,1,1024,1024,1024,1024,0,0,0,0,18.5,0,0,99,4.219,4.216,0,0,0,0,4.503,76.1,476.79299918126,3.608924,6,P-GPS,
4000,2024-01-04 22:19:44,38.719603443867,-121.167900337139,3.608924,,,476.79299918126,3.937008,0,0.76462928956,1.45033141124,16,5,8.42,476.79299918126,3.608924,0.223694,0.78469818784,0,0,0,31.7, 0, -1.2,0,1,1024,1024,1024,1024,0,0,0,0,18.6,0,0,99,4.219,4.216,0,0,0,0,4.503,76.1,476.79299918126,3.608924,6,P-GPS,
4100,2024-01-04 22:19:45,38.7196036944943,-121.16790046656,3.608924,,,476.79299918126,3.937008,0,0.66816931272,1.5489173724,16,5,8.469,476.79299918126,3.608924,0.223694,0.78469818784,0,0,0,31.6, -0.1, -1.2,0,1,1024,1024,1024,1024,0,0,0,0,18.5,0,0,99,4.224,4.222,0,0,0,0,3.827,76.1,476.79299918126,3.608924,6,P-GPS,
4200,2024-01-04 22:19:45,38.7196037168561,-121.167900503599,3.608924,,,476.79299918126,3.937008,0,0.65849411556,1.56224742532,16,5,8.469,476.79299918126,3.608924,0.223694,0.78469818784,0,0,0,31.5, 0, -1,0,1,1024,1024,1024,1024,0,0,0,0,18.6,0,0,99,4.224,4.222,0,0,0,0,3.827,76.1,476.79299918126,3.608924,6,P-GPS,
4300,2024-01-04 22:19:45,38.7196037564696,-121.167900530398,3.608924,,,476.79299918126,3.937008,0,0.64310369512,1.5785925702,16,5,8.469,476.79299918126,3.608924,0.223694,0.78469818784,0,0,0,31.5, 0, -1,0,1,1024,1024,1024,1024,0,0,0,0,18.6,0,0,99,4.224,4.222,0,0,0,0,3.827,76.1,476.79299918126,3.608924,6,P-GPS,
4400,2024-01-04 22:19:45,38.7196038183961,-121.167900549443,3.608924,,,476.79299918126,3.937008,0,0.61998361564,1.60182747908,16,5,8.469,476.79299918126,3.608924,0.223694,0.78469818784,0,0,0,31.5, 0.1, -0.8,0,1,1024,1024,1024,1024,0,0,0,0,18.5,0,0,99,4.224,4.222,0,0,0,0,3.827,76.1,476.79299918126,3.608924,6,P-GPS,
4500,2024-01-04 22:19:45,38.7196040240425,-121.167900448762,3.608924,,,476.79299918126,3.937008,0,0.55081694676,1.68214244228,16,5,8.469,476.79299918126,3.608924,0.223694,0.78469818784,0,0,0,31.4, 0.1, -0.8,0,1,1024,1024,1024,1024,0,0,0,0,18.6,0,0,99,4.224,4.222,0,0,0,0,3.827,76.1,476.79299918126,3.608924,6,P-GPS,
4600,2024-01-04 22:19:45,38.7196040834775,-121.167900454338,3.608924,,,476.79299918126,3.937008,0,0.52926838964,1.7038878498,16,5,8.469,476.79299918126,3.608924,0.223694,0.78469818784,0,0,0,31.4, 0.2, -0.6,0,1,1024,1024,1024,1024,0,0,0,0,18.5,0,0,99,4.224,4.222,0,0,0,0,3.827,76.1,476.79299918126,3.608924,6,P-GPS,
4700,2024-01-04 22:19:45,38.7196041136493,-121.167900455453,3.608924,,,476.79299918126,3.937008,0,0.51844161764,1.71489834884,16,5,8.469,476.79299918126,3.608924,0.223694,0.78469818784,0,0,0,31.3, 0.3, -0.5,0,1,1024,1024,1024,1024,0,0,0,0,18.5,0,0,99,4.224,4.222,0,0,0,0,3.827,76.1,476.79299918126,3.608924,6,P-GPS,
4800,2024-01-04 22:19:45,38.7196041218501,-121.167900474591,3.608924,,,476.79299918126,3.937008,0,0.51438321856,1.72111554064,16,5,8.469,476.79299918126,3.608924,0.223694,0.78469818784,0,0,0,31.3, 0.3, -0.5,0,1,1024,1024,1024,1024,0,0,0,0,18.6,0,0,99,4.224,4.222,0,0,0,0,3.827,76.1,476.79299918126,3.608924,6,P-GPS,
4900,2024-01-04 22:19:45,38.7196039158227,-121.167900490523,3.608924,,,476.79299918126,3.937008,0,0.58739831276,1.79642066116,16,5,8.469,476.79299918126,3.608924,0.223694,0.78469818784,0,0,0,31.2, 0.3, -0.5,0,1,1024,1024,1024,1024,0,0,0,0,18.6,0,0,99,4.224,4.222,0,0,0,0,3.827,76.1,476.79299918126,3.608924,6,P-GPS,
5000,2024-01-04 22:19:46,38.7196039110546,-121.167900537213,3.608924,,,476.79299918126,3.937008,0,0.58700461196,1.80982289256,16,5,8.469,476.79299918126,3.608924,0.223694,0.78469818784,0,0,0,31.2, 0.3, -0.4,0,1,1024,1024,1024,1024,0,0,0,0,18.5,0,0,99,4.224,4.222,0,0,0,0,3.827,76.1,476.79299918126,3.608924,6,P-GPS,
5100,2024-01-04 22:19:46,38.7196039228771,-121.167900590535,3.608924,,,476.79299918126,3.937008,0,0.5806758716,1.82560373296,16,5,8.441,476.79299918126,3.608924,0.223694,0.78469818784,0,0,0,31.1, 0.4, -0.3,0,1,1024,1024,1024,1024,0,0,0,0,18.5,0,0,99,4.221,4.22,0,0,0,0,4.094,76.1,476.79299918126,3.608924,6,P-GPS,
5200,2024-01-04 22:19:46,38.7196039128361,-121.167900638615,3.608924,,,476.79299918126,3.937008,0,0.58279857508,1.83977368092,16,5,8.441,476.79299918126,3.608924,0.223694,0.78469818784,0,0,0,31.1, 0.4, -0.2,0,1,1024,1024,1024,1024,0,0,0,0,18.5,0,0,99,4.221,4.22,0,0,0,0,4.094,76.1,476.79299918126,3.608924,6,P-GPS,
5300,2024-01-04 22:19:46,38.7196037095151,-121.167900751022,3.608924,,,476.79299918126,3.937008,0,0.65461944352,1.92056108508,16,5,8.441,476.79299918126,3.608924,0.223694,0.78469818784,0,0,0,31.1, 0.6, -0.1,0,1,1024,1024,1024,1024,0,0,0,0,18.5,0,0,99,4.221,4.22,0,0,0,0,4.094,76.1,476.79299918126,3.608924,6,P-GPS,
5400,2024-01-04 22:19:46,38.719603684437,-121.167900810549,3.608924,,,476.79299918126,3.937008,0,0.6633202312,1.93981961588,16,5,8.441,476.79299918126,3.608924,0.223694,0.78469818784,0,0,0,31, 0.7, 0,0,1,1024,1024,1024,1024,0,0,0,0,18.5,0,0,99,4.221,4.22,0,0,0,0,4.094,76.1,476.79299918126,3.608924,6,P-GPS,
5500,2024-01-04 22:19:46,38.7196036731194,-121.167900890877,3.608924,,,476.79299918126,3.937008,0,0.66753939144,1.96305452476,16,5,8.441,476.79299918126,3.608924,0.223694,0.78469818784,0,0,0,31, 0.8, 0,0,1,1024,1024,1024,1024,0,0,0,0,18.6,0,0,99,4.221,4.22,0,0,0,0,4.094,76.1,476.79299918126,3.608924,6,P-GPS,
5600,2024-01-04 22:19:46,38.7196036854337,-121.167900947042,3.608924,,,476.79299918126,3.937008,0,0.66357941756,1.97966213684,16,5,8.441,476.79299918126,3.608924,0.223694,0.78469818784,0,0,0,30.9, 0.9, -0.1,0,1,1024,1024,1024,1024,0,0,0,0,18.5,0,0,99,4.221,4.22,0,0,0,0,4.094,76.1,476.79299918126,3.608924,6,P-GPS,
5700,2024-01-04 22:19:46,38.7196037273987,-121.167900980623,3.608924,,,476.79299918126,3.937008,0,0.64879923336,1.99771331852,16,5,8.441,476.79299918126,3.608924,0.223694,0.78469818784,0,0,0,30.9, 1, -0.3,0,1,1024,1024,1024,1024,0,0,0,0,18.6,0,0,99,4.221,4.22,0,0,0,0,4.094,76.1,476.79299918126,3.608924,6,P-GPS,
5800,2024-01-04 22:19:46,38.7196037867848,-121.16790113477,3.608924,,,476.79299918126,3.608924,0,0.63146655564,2.04665032796,16,5,8.441,476.79299918126,3.608924,0.223694,0.78469818784,0,0,0,30.9, 1, -0.3,0,1,1024,1024,1024,1024,0,0,0,0,18.5,0,0,99,4.221,4.22,0,0,0,0,4.094,76.1,476.79299918126,3.608924,6,P-GPS,
5900,2024-01-04 22:19:46,38.719603783606,-121.167901208582,3.608924,,,476.79299918126,3.608924,0,0.63573164764,2.06769363572,16,5,8.441,476.79299918126,3.608924,0.223694,0.78469818784,0,0,0,30.8, 0.9, -0.4,0,1,1024,1024,1024,1024,0,0,0,0,18.5,0,0,99,4.221,4.22,0,0,0,0,4.094,76.1,476.79299918126,3.608924,6,P-GPS,
6000,2024-01-04 22:19:46,38.7196037933799,-121.167901269174,3.608924,,,476.79299918126,3.608924,0,0.63529201508,2.08530518484,16,5,8.441,476.79299918126,3.608924,0.223694,0.78469818784,0,0,0,30.8, 1, -0.5,0,1,1024,1024,1024,1024,0,0,0,0,18.6,0,0,99,4.221,4.22,0,0,0,0,4.094,76.1,476.79299918126,3.608924,6,P-GPS,
6100,2024-01-04 22:19:47,38.7196038197184,-121.167901320386,3.608924,,,476.79299918126,3.608924,0,0.62886156868,2.10276581532,16,5,8.441,476.79299918126,3.608924,0.223694,0.78469818784,0,0,0,30.8, 1, -0.5,0,1,1024,1024,1024,1024,0,0,0,0,18.5,0,0,99,4.221,4.22,0,0,0,0,4.094,76.1,476.79299918126,3.608924,6,P-GPS,
6200,2024-01-04 22:19:47,38.7196039192066,-121.167901429856,3.608924,,,476.79299918126,3.608924,0,0.60140421872,2.1506070242,16,5,8.441,476.79299918126,3.608924,0.223694,0.78469818784,0,0,0,30.8, 1.1, -0.5,0,1,1024,1024,1024,1024,0,0,0,0,18.6,0,0,99,4.221,4.22,0,0,0,0,4.094,76.1,476.79299918126,3.608924,6,P-GPS,
6300,2024-01-04 22:19:47,38.7196040073477,-121.167901437156,3.608924,,,476.79299918126,3.608924,0,0.57120080568,2.18283143468,16,5,8.441,476.79299918126,3.608924,0.223694,0.78469818784,0,0,0,30.7, 1.1, -0.6,0,1,1024,1024,1024,1024,0,0,0,0,18.5,0,0,99,4.221,4.22,0,0,0,0,4.094,76.1,476.79299918126,3.608924,6,P-GPS,
6400,2024-01-04 22:19:47,38.7196040796474,-121.167901464027,3.608924,,,476.79299918126,3.608924,0,0.54849411204,2.21029534632,16,5,8.441,476.79299918126,3.608924,0.223694,0.78469818784,0,0,0,30.7, 1.1, -0.5,0,1,1024,1024,1024,1024,0,0,0,0,18.5,0,0,99,4.221,4.22,0,0,0,0,4.094,76.1,476.79299918126,3.608924,6,P-GPS,
6500,2024-01-04 22:19:47,38.7196041356398,-121.167901518915,3.608924,,,476.79299918126,3.608924,0,0.53463584388,2.23601385108,16,5,8.441,476.79299918126,3.608924,0.223694,0.78469818784,0,0,0,30.7, 0.8, -0.5,0,1,1024,1024,1024,1024,0,0,0,0,18.6,0,0,99,4.221,4.22,0,0,0,0,4.094,76.1,476.79299918126,3.608924,6,P-GPS,
6600,2024-01-04 22:19:47,38.7196043907942,-121.167901547975,3.608924,,,476.79299918126,3.608924,0,0.45268374152,2.32947514016,16,5,8.441,476.79299918126,3.608924,0.223694,0.78469818784,0,0,0,30.7, 0.6, -0.6,0,1,1024,1024,1024,1024,0,0,0,0,18.6,0,0,99,4.221,4.22,0,0,0,0,4.094,76.1,476.79299918126,3.608924,6,P-GPS,
6700,2024-01-04 22:19:47,38.7196044330523,-121.167901623054,3.608924,,,476.79299918126,3.608924,0,0.44911746844,2.35582684704,16,5,8.441,476.79299918126,3.608924,0.223694,0.78469818784,0,0,0,30.7, 1, -0.3,0,1,1024,1024,1024,1024,0,0,0,0,18.5,0,0,99,4.221,4.22,0,0,0,0,4.094,76.1,476.79299918126,3.608924,6,P-GPS,
6800,2024-01-04 22:19:47,38.7196044938616,-121.167901669542,3.608924,,,476.79299918126,3.608924,0,0.43698164128,2.3816601812,16,5,8.441,476.79299918126,3.608924,0.223694,0.78469818784,0,0,0,30.7, 1, 0,0,1,1024,1024,1024,1024,0,0,0,0,18.5,0,0,99,4.221,4.22,0,0,0,0,4.094,76.1,476.79299918126,3.608924,6,P-GPS,
6900,2024-01-04 22:19:47,38.7196045771077,-121.167901681322,3.608924,,,476.79299918126,3.608924,0,0.41366143056,2.41221792496,16,5,8.441,476.79299918126,3.608924,0.223694,0.78469818784,0,0,0,30.7, 1.1, 0,0,1,1024,1024,1024,1024,0,0,0,0,18.6,0,0,99,4.221,4.22,0,0,0,0,4.094,76.1,476.79299918126,3.608924,6,P-GPS,
7000,2024-01-04 22:19:47,38.7196048422868,-121.167901522748,3.608924,,,476.79299918126,3.608924,0,0.309208999396,2.5189797394,16,5,8.441,476.79299918126,3.608924,0.223694,0.78469818784,0,0,0,30.6, 1.2, -0.3,0,1,1024,1024,1024,1024,0,0,0,0,18.5,0,0,99,4.221,4.22,0,0,0,0,4.094,76.1,476.79299918126,3.608924,6,P-GPS,
7100,2024-01-04 22:19:48,38.7196049273176,-121.167901496061,3.608924,,,476.79299918126,3.608924,0,0.280608932864,2.5509187168,16,5,8.441,476.79299918126,3.608924,0.223694,0.78469818784,0,0,0,30.6, 1.2, -0.4,0,1,1024,1024,1024,1024,0,0,0,0,18.5,0,0,99,4.221,4.22,0,0,0,0,4.094,76.1,476.79299918126,3.608924,6,P-GPS,
7200,2024-01-04 22:19:48,38.7196049790012,-121.167901489016,3.608924,,,476.79299918126,3.608924,0,0.265407816892,2.569881972,16,5,8.441,476.79299918126,3.608924,0.223694,0.78469818784,0,0,0,30.6, 1.2, -0.8,0,1,1024,1024,1024,1024,0,0,0,0,18.6,0,0,99,4.221,4.22,0,0,0,0,4.094,76.1,476.79299918126,3.608924,6,P-GPS,
7300,2024-01-04 22:19:48,38.7196049982592,-121.167901512194,3.608924,,,476.79299918126,3.608924,0,0.265110244704,2.57952107992,16,5,8.441,476.79299918126,3.608924,0.223694,0.78469818784,0,0,0,30.6, 0.9, -1.1,0,1,1024,1024,1024,1024,0,0,0,0,18.6,0,0,99,4.221,4.22,0,0,0,0,4.094,76.1,476.79299918126,3.608924,6,P-GPS,
7400,2024-01-04 22:19:48,38.7196050091306,-121.167901512158,3.608924,,,476.79299918126,3.608924,0,0.262366806296,2.58348761548,16,5,8.425,476.79299918126,3.608924,0.223694,0.78469818784,0,0,0,30.6, 0.7, -1.1,0,1,1024,1024,1024,1024,0,0,0,0,18.5,0,0,99,4.211,4.211,0,0,0,0,4.1,76.1,476.79299918126,3.608924,6,P-GPS,
7500,2024-01-04 22:19:48,38.7196049858862,-121.167901393674,3.608924,,,476.79299918126,3.608924,0,0.245394692892,2.61826451948,16,5,8.425,476.79299918126,3.608924,0.223694,0.78469818784,0,0,0,30.7, 0.7, -0.9,0,1,1024,1024,1024,1024,0,0,0,0,18.6,0,0,99,4.211,4.211,0,0,0,0,4.1,76.1,476.79299918126,3.608924,6,P-GPS,
7600,2024-01-04 22:19:48,38.7196050031119,-121.167901389776,3.608924,,,476.79299918126,3.608924,0,0.239879272768,2.62464903412,16,5,8.425,476.79299918126,3.608924,0.223694,0.78469818784,0,0,0,30.7, 0.6, -0.5,0,1,1024,1024,1024,1024,0,0,0,0,18.5,0,0,99,4.211,4.211,0,0,0,0,4.1,76.1,476.79299918126,3.608924,6,P-GPS,
7700,2024-01-04 22:19:48,38.7196050298119,-121.167901407459,3.608924,,,476.79299918126,3.608924,0,0.235976713588,2.6356136014,16,5,8.425,476.79299918126,3.608924,0.223694,0.78469818784,0,0,0,30.7, 0.6, -0.5,0,1,1024,1024,1024,1024,0,0,0,0,18.6,0,0,99,4.211,4.211,0,0,0,0,4.1,76.1,476.79299918126,3.608924,6,P-GPS,
7800,2024-01-04 22:19:48,38.7196050393839,-121.167901450566,3.608924,,,476.79299918126,3.608924,0,0.24207021772,2.64836950732,16,5,8.425,476.79299918126,3.608924,0.223694,0.78469818784,0,0,0,30.6, 0.6, -0.3,0,1,1024,1024,1024,1024,0,0,0,0,18.5,0,0,99,4.211,4.211,0,0,0,0,4.1,76.1,476.79299918126,3.608924,6,P-GPS,
7900,2024-01-04 22:19:48,38.7196050134558,-121.167901589237,3.608924,,,476.79299918126,3.608924,0,0.277724418336,2.68896334064,16,5,8.425,476.79299918126,3.608924,0.223694,0.78469818784,0,0,0,30.6, 0.7, -0.3,0,1,1024,1024,1024,1024,0,0,0,0,18.5,0,0,99,4.211,4.211,0,0,0,0,4.1,76.1,476.79299918126,3.608924,6,P-GPS,
8000,2024-01-04 22:19:48,38.7196049748552,-121.167901651076,3.608924,,,476.79299918126,3.608924,0,0.300262804884,2.71150599228,16,5,8.425,476.79299918126,3.608924,0.223694,0.78469818784,0,0,0,30.5, 0.6, -0.3,0,1,1024,1024,1024,1024,0,0,0,0,18.6,0,0,99,4.211,4.211,0,0,0,0,4.1,76.1,476.79299918126,3.608924,6,P-GPS,
8100,2024-01-04 22:19:49,38.7196048988231,-121.167901703528,3.608924,,,476.79299918126,3.608924,0,0.32971129664,2.74300861796,16,5,8.425,476.79299918126,3.608924,0.223694,0.78469818784,0,0,0,30.5, 0.5, -0.4,0,1,1024,1024,1024,1024,0,0,0,0,18.6,0,0,99,4.211,4.211,0,0,0,0,4.1,76.1,476.79299918126,3.608924,6,P-GPS,
8200,2024-01-04 22:19:49,38.7196048363267,-121.167901735732,3.608924,,,476.79299918126,3.608924,0,0.35193242596,2.7675853904,16,5,8.425,476.79299918126,3.608924,0.223694,0.78469818784,0,0,0,30.5, 0.4, -0.7,0,1,1024,1024,1024,1024,0,0,0,0,18.6,0,0,99,4.211,4.211,0,0,0,0,4.1,76.1,476.79299918126,3.608924,6,P-GPS,
8300,2024-01-04 22:19:49,38.7196046606371,-121.167901811393,3.608924,,,476.79299918126,3.608924,0,0.41297245416,2.83520678364,16,5,8.425,476.79299918126,3.608924,0.223694,0.78469818784,0,0,0,30.5, 0.6, -1,0,1,1024,1024,1024,1024,0,0,0,0,18.5,0,0,99,4.211,4.211,0,0,0,0,4.1,76.1,476.79299918126,3.608924,6,P-GPS,
8400,2024-01-04 22:19:49,38.7196046250002,-121.167901823615,3.608924,,,476.79299918126,3.608924,0,0.42500985612,2.84866807016,16,5,8.417,476.79299918126,3.608924,0.223694,0.78469818784,0,0,0,30.6, 0.7, -1.2,0,1,1024,1024,1024,1024,0,0,0,0,18.6,0,0,99,4.208,4.208,0,0,0,0,4.132,76.1,476.79299918126,3.608924,6,P-GPS,
8500,2024-01-04 22:19:49,38.7196046028501,-121.167901838356,3.608924,,,476.79299918126,3.608924,0,0.43386484328,2.85777240116,16,5,8.417,476.79299918126,3.608924,0.223694,0.78469818784,0,0,0,30.7, 0.8, -1.3,0,1,1024,1024,1024,1024,0,0,0,0,18.6,0,0,99,4.208,4.208,0,0,0,0,4.132,76.1,476.79299918126,3.608924,6,P-GPS,
8600,2024-01-04 22:19:49,38.7196045705255,-121.167901841374,3.608924,,,476.79299918126,3.608924,0,0.44340224516,2.86959654852,16,5,8.417,476.79299918126,3.608924,0.223694,0.78469818784,0,0,0,30.7, 0.7, -1.4,0,1,1024,913,1024,1024,0,-17,0,0,18.5,0,0,99,4.208,4.208,0,0,0,0,4.132,76.1,476.79299918126,3.608924,6,P-GPS,
8700,2024-01-04 22:19:49,38.7196045242191,-121.167901793824,3.608924,,,476.79299918126,3.608924,0,0.44816930568,2.89124681168,16,5,8.417,476.79299918126,3.608924,0.223694,0.78469818784,0,0,0,30.7, 0.9, -1.5,0,1,1024,691,1024,1024,0,-50,0,0,18.6,0,0,99,4.208,4.208,0,0,0,0,4.132,76.1,476.79299918126,3.608924,6,P-GPS,
8800,2024-01-04 22:19:49,38.7196044974345,-121.167901794508,3.608924,,,476.79299918126,3.608924,0,0.45610565764,2.90102043404,16,5,8.417,476.79299918126,3.608924,0.223694,0.78469818784,0,0,0,30.6, 0.9, -3.1,0,1,1024,658,1024,1024,0,-55,0,0,18.6,0,0,99,4.208,4.208,0,0,0,0,4.132,76.1,476.79299918126,3.608924,6,P-GPS,
8900,2024-01-04 22:19:49,38.7196045095045,-121.167901834734,3.608924,,,476.79299918126,3.608924,0,0.45952757376,2.9132874948,16,5,8.417,476.79299918126,3.608924,0.223694,0.78469818784,0,0,0,30.4, 0.9, -6.3,0,1,1024,560,1024,1024,0,-70,0,0,18.6,0,0,99,4.208,4.208,0,0,0,0,4.132,76.1,476.79299918126,3.608924,6,P-GPS,
9000,2024-01-04 22:19:49,38.719604541093,-121.167901950667,3.28084,,,476.46491518126,3.608924,0.223694,0.47191274476,2.948244845,16,5,8.417,476.79299918126,3.608924,0.223694,0.78469818784,0,-0.223694,0,30.5, 0.7, -7.9,0,1,1024,522,1024,1024,0,-76,0,0,18.6,0,0,99,4.208,4.208,0,0,0,0,4.132,76.1,476.46491518126,3.28084,6,P-GPS,
9100,2024-01-04 22:19:50,38.7196046063285,-121.167902189104,3.28084,,,476.46491518126,3.608924,0.4921268,0.50402888752,3.02017070032,16,5,8.417,476.79299918126,3.608924,0.4921268,0.78469818784,0.223694,-0.447388,0,30.4, 0.7, -10.1,0,1,1024,522,1024,1024,0,-76,0,0,18.6,0,0,99,4.208,4.208,0,0,0,0,4.132,76.1,476.46491518126,3.28084,6,P-GPS,
9200,2024-01-04 22:19:50,38.7196047759375,-121.167902548516,3.28084,,,476.46491518126,3.608924,0.8052984,0.55351707808,3.13974091412,16,5,8.417,476.79299918126,3.608924,0.8052984,0.78469818784,0.447388,-0.671082,0,30.4, 0.8, -11.9,0,1,1024,492,1024,1024,0,-81,0,0,18.6,0,0,99,4.208,4.208,0,0,0,0,4.132,76.1,476.46491518126,3.28084,6,P-GPS,
9300,2024-01-04 22:19:50,38.7196050225686,-121.167903146597,3.608924,,,476.79299918126,3.608924,1.2974252,0.67914044168,3.3323163796,16,5,8.417,476.79299918126,3.608924,1.2974252,0.78469818784,0.671082,-1.11847,0,30.4, 0.9, -13.4,0,1,1024,380,1024,1024,0,-98,0,0,18.6,0,0,99,4.208,4.208,0,0,0,0,4.132,76.1,476.79299918126,3.608924,6,P-GPS,
9400,2024-01-04 22:19:50,38.7196053425936,-121.167903909515,3.608924,,,476.79299918126,3.608924,1.8119214,0.87530842696,3.5788715056,16,5,8.413,476.79299918126,3.608924,1.8119214,0.87530842696,0.894776,-1.565858,0,30.4, 0.9, -15.3,0,1,1024,364,1024,1024,0,-100,0,0,18.6,0,0,99,4.205,4.205,0,0,0,0,4.133,76.28,476.79299918126,3.608924,6,P-GPS,
9500,2024-01-04 22:19:50,38.7196057835925,-121.16790494554,3.608924,,,476.79299918126,3.608924,2.3040482,1.17278218976,3.9148295216,16,5,8.413,476.79299918126,3.608924,2.3040482,1.17278218976,1.11847,-2.013246,0,30.4, 0.8, -17.1,0,1,1024,364,1024,1024,0,-100,0,0,18.6,0,0,99,4.205,4.205,0,0,0,0,4.133,76.28,476.79299918126,3.608924,6,P-GPS,
9600,2024-01-04 22:19:50,38.7196063177775,-121.167906355741,3.608924,,,476.79299918126,3.608924,2.908022,1.59765753144,4.36105657,16,5,8.413,476.79299918126,3.608924,2.908022,1.59765753144,1.565858,-2.460634,0,30.4, 0.9, -17.4,0,1,1024,364,1024,1024,0,-100,0,0,18.6,0,0,99,4.205,4.205,0,0,0,0,4.133,76.28,476.79299918126,3.608924,6,P-GPS,
9700,2024-01-04 22:19:50,38.7196068684913,-121.167907980634,3.608924,,,476.79299918126,3.608924,3.6014734,2.09249022444,4.8653872948,16,5,8.413,476.79299918126,3.608924,3.6014734,2.09249022444,1.789552,-3.131716,0,30.4, 1.2, -17.4,0,1,1024,364,1024,1024,0,-100,0,0,18.6,0,0,99,4.205,4.205,0,0,0,0,4.133,76.28,476.79299918126,3.608924,6,P-GPS,
9800,2024-01-04 22:19:50,38.7196074859451,-121.167909799019,3.608924,,,476.79299918126,3.608924,4.1159696,2.65059719768,5.4298886252,16,5,8.413,476.79299918126,3.608924,4.1159696,2.65059719768,2.013246,-3.579104,0,30.4, 1.2, -17.1,0,1,1024,545,1024,1024,0,-73,0,0,18.6,0,0,99,4.205,4.205,0,0,0,0,4.133,76.28,476.79299918126,3.608924,6,P-GPS,
9900,2024-01-04 22:19:50,38.7196082348991,-121.167911984702,3.608924,,,476.79299918126,3.608924,4.7199434,3.3250329148,6.1094490144,16,5,8.413,476.79299918126,3.608924,4.7199434,3.3250329148,2.460634,-4.026492,0,30.3, 1.3, -16.9,0,1,1024,956,1024,1024,0,-10,0,0,18.6,0,0,99,4.205,4.205,0,0,0,0,4.133,76.28,476.79299918126,3.608924,6,P-GPS,
10000,2024-01-04 22:19:51,38.7196088260503,-121.167915105699,3.608924,,,476.79299918126,3.608924,5.2120702,4.237696986,7.0236550804,16,5,8.413,476.79299918126,3.608924,5.2120702,4.237696986,2.684328,-4.47388,0,30.4, 1.5, -13.8,0,1,1024,1024,1024,1024,0,0,0,0,18.6,0,0,99,4.205,4.205,0,0,0,0,4.133,76.28,476.79299918126,3.608924,6,P-GPS,
10100,2024-01-04 22:19:51,38.7196098856332,-121.167917796848,3.937008,,,477.12108318126,3.608924,5.4133948,5.0846130236,7.8817587824,16,5,8.413,477.12108318126,3.937008,5.4133948,5.0846130236,2.684328,-4.697574,0,30.7, 1.6, -5.9,0,1,1024,1024,1024,1024,0,0,0,0,18.6,0,0,99,4.205,4.205,0,0,0,0,4.133,76.28,477.12108318126,3.937008,6,P-GPS,
10200,2024-01-04 22:19:51,38.7196108700797,-121.167920371786,3.937008,,,477.12108318126,3.608924,5.2120702,5.8943899524,8.697998966,16,5,8.413,477.12108318126,3.937008,5.4133948,5.8943899524,2.684328,-4.47388,0,31.4, 1.2, 13.6,0,1,1024,1024,1024,1024,0,0,0,0,18.6,0,0,99,4.205,4.205,0,0,0,0,4.133,76.28,477.12108318126,3.937008,6,P-GPS,
10300,2024-01-04 22:19:51,38.719611751576,-121.167922821598,4.265092,,,477.44916718126,3.608924,5.2120702,6.6593834152,9.4659779932,16,5,8.413,477.44916718126,4.265092,5.4133948,6.6593834152,2.23694,-3.802798,0,31, 0.7, 19.3,0,1,1024,1024,1024,1024,0,0,0,0,18.5,0,0,99,4.205,4.205,0,0,0,0,4.133,76.28,477.44916718126,4.265092,6,P-GPS,
10400,2024-01-04 22:19:51,38.7196122593118,-121.167925292288,4.265092,,,477.44916718126,3.608924,3.4225182,7.3839241208,10.1932746044,16,5,8.394,477.44916718126,4.265092,5.4133948,7.3839241208,1.789552,-2.908022,0,31, 2, 18.6,0,1,1024,1024,1024,1024,0,0,0,0,18.5,0,0,99,4.198,4.195,0,0,0,0,4.303,76.1,477.44916718126,4.265092,6,P-GPS,
10500,2024-01-04 22:19:51,38.7196127674384,-121.167927051115,4.593176,,,477.77725118126,3.608924,2.6172198,7.9177495972,10.7271656976,16,5,8.394,477.77725118126,4.593176,5.4133948,7.9177495972,1.342164,-2.23694,0,30.7, 1.7, 15.8,0,1,1024,1024,1024,1024,0,0,0,0,18.5,0,0,99,4.198,4.195,0,0,0,0,4.303,76.1,477.77725118126,4.593176,6,P-GPS,
10600,2024-01-04 22:19:51,38.7196130818454,-121.167928327794,4.593176,,,477.77725118126,3.608924,1.6105968,8.2986223128,11.1082352636,16,5,8.394,477.77725118126,4.593176,5.4133948,8.2986223128,0.894776,-1.342164,0,30.7, 1.8, 12,0,1,1024,1458,1024,1024,0,66,0,0,18.5,0,0,99,4.198,4.195,0,0,0,0,4.303,76.1,477.77725118126,4.593176,6,P-GPS,
10700,2024-01-04 22:19:51,38.7196132715591,-121.167929305932,4.593176,,,477.77725118126,3.608924,1.11847,8.5842522432,11.39517753,16,5,8.394,477.77725118126,4.593176,5.4133948,8.5842522432,0.671082,-0.894776,0,30.7, 2.1, 8.5,0,1,1024,1501,1024,1024,0,72,0,0,18.5,0,0,99,4.198,4.195,0,0,0,0,4.303,76.1,477.77725118126,4.593176,6,P-GPS,
10800,2024-01-04 22:19:51,38.7196132168564,-121.167929846187,4.593176,,,477.77725118126,3.608924,0.4921268,8.723097392,11.5502300284,16,5,8.394,477.77725118126,4.593176,5.4133948,8.723097392,0.223694,-0.447388,0,31, 1.9, 11.1,0,1,1024,1024,1024,1024,0,0,0,0,18.5,0,0,99,4.198,4.195,0,0,0,0,4.303,76.1,477.77725118126,4.593176,6,P-GPS,
10900,2024-01-04 22:19:51,38.7196122105757,-121.167929074504,4.265092,,,477.44916718126,3.608924,0,8.4012797964,11.9780843728,16,5,8.394,477.77725118126,4.593176,5.4133948,8.723097392,0,0,0,31, 1.7, 10.8,0,1,1024,1024,1024,1024,0,0,0,0,18.6,0,0,99,4.198,4.195,0,0,0,0,4.303,76.1,477.44916718126,4.265092,6,P-GPS,
11000,2024-01-04 22:19:51,38.7196117836628,-121.167928891398,4.265092,,,477.44916718126,3.608924,0.223694,8.3071196884,12.1423232232,16,5,8.394,477.77725118126,4.593176,5.4133948,8.723097392,0,0.223694,0,30.2, 1.8, 0.5,0,1,1024,1024,1024,1024,0,0,0,0,18.6,0,0,99,4.198,4.195,0,0,0,0,4.303,76.1,477.44916718126,4.265092,6,P-GPS,
11100,2024-01-04 22:19:52,38.7196112974942,-121.167928544528,4.265092,,,477.44916718126,3.608924,0.223694,8.164534382,12.3453416024,16,5,8.394,477.77725118126,4.593176,5.4133948,8.723097392,0,0.223694,0,30.5, 1.7, -1.4,0,1,1024,1179,1024,1024,0,23,0,0,18.5,0,0,99,4.198,4.195,0,0,0,0,4.303,76.1,477.44916718126,4.265092,6,P-GPS,
11200,2024-01-04 22:19:52,38.7196109975869,-121.167928234788,4.265092,,,477.44916718126,3.608924,0.223694,8.0514438272,12.4858599796,16,5,8.394,477.77725118126,4.593176,5.4133948,8.723097392,0,0.223694,0,30.6, 1.8, -1.5,0,1,1024,1684,1024,1024,0,100,0,0,18.6,0,0,99,4.198,4.195,0,0,0,0,4.303,76.1,477.44916718126,4.265092,6,P-GPS,
11300,2024-01-04 22:19:52,38.7196109145167,-121.167926979477,4.265092,,,477.44916718126,3.608924,0.223694,7.6980645508,12.8444886,16,5,8.394,477.77725118126,4.593176,5.4133948,8.723097392,0,0.223694,0,31, 1.7, 6.4,0,1,1024,1684,1024,1024,0,100,0,0,18.5,0,0,99,4.198,4.195,0,0,0,0,4.303,76.1,477.44916718126,4.265092,6,P-GPS,
11400,2024-01-04 22:19:52,38.7196108044664,-121.167926712869,4.265092,,,477.44916718126,3.608924,0.4921268,7.6144359392,12.9303481828,16,5,8.402,477.77725118126,4.593176,5.4133948,8.723097392,-0.223694,0.447388,0,31.2, 1.5, 13.9,0,1,1024,1684,1024,1024,0,100,0,0,18.5,0,0,99,4.198,4.195,0,0,0,0,4.297,76.28,477.44916718126,4.265092,6,P-GPS,
11500,2024-01-04 22:19:52,38.719610599973,-121.167926300596,3.937008,,,477.12108318126,3.608924,1.006623,7.4820868536,13.0694229904,16,5,8.402,477.77725118126,4.593176,5.4133948,8.723097392,-0.447388,0.894776,0,31, 1.2, 15.8,0,1,1024,1684,1024,1024,0,100,0,0,18.5,0,0,99,4.198,4.195,0,0,0,0,4.297,76.28,477.12108318126,3.937008,6,P-GPS,
11600,2024-01-04 22:19:52,38.7196103210075,-121.167925689947,3.937008,,,477.12108318126,3.608924,1.4987498,7.2886157188,13.270833758,16,5,8.402,477.77725118126,4.593176,5.4133948,8.723097392,-0.671082,1.342164,0,30.8, 1.4, 15.5,0,1,1024,1684,1024,1024,0,100,0,0,18.5,0,0,99,4.198,4.195,0,0,0,0,4.297,76.28,477.12108318126,3.937008,6,P-GPS,
11700,2024-01-04 22:19:52,38.7196106102517,-121.167925155064,3.937008,,,477.12108318126,3.608924,2.3040482,7.1676839564,13.4561027928,16,5,8.402,477.77725118126,4.593176,5.4133948,8.723097392,-1.11847,2.013246,0,30.7, 1.4, 15.5,0,1,1024,1684,1024,1024,0,100,0,0,18.5,0,0,99,4.198,4.195,0,0,0,0,4.297,76.28,477.12108318126,3.937008,6,P-GPS,
11800,2024-01-04 22:19:52,38.7196101594268,-121.167924061346,3.937008,,,477.12108318126,3.608924,2.796175,6.8247049428,13.80823535,16,5,8.402,477.77725118126,4.593176,5.4133948,8.723097392,-1.342164,2.460634,0,30.6, 1.3, 15.4,0,1,1024,1684,1024,1024,0,100,0,0,18.5,0,0,99,4.198,4.195,0,0,0,0,4.297,76.28,477.12108318126,3.937008,6,P-GPS,
11900,2024-01-04 22:19:52,38.7196095943176,-121.167922605501,3.937008,,,477.12108318126,3.608924,3.6014734,6.3727364244,14.2710962572,16,5,8.402,477.77725118126,4.593176,5.4133948,8.723097392,-1.789552,3.131716,0,30.6, 1.2, 15.3,0,1,1024,1684,1024,1024,0,100,0,0,18.5,0,0,99,4.198,4.195,0,0,0,0,4.297,76.28,477.12108318126,3.937008,6,P-GPS,
12000,2024-01-04 22:19:53,38.7196089210016,-121.167920895819,3.937008,,,477.12108318126,3.608924,4.1159696,5.8433728904,14.81627344,16,5,8.402,477.77725118126,4.593176,5.4133948,8.723097392,-2.013246,3.579104,0,30.7, 1.1, 15.3,0,1,1024,1107,1024,1024,0,13,0,0,18.5,0,0,99,4.198,4.195,0,0,0,0,4.297,76.28,477.12108318126,3.937008,6,P-GPS,
12100,2024-01-04 22:19:53,38.7196085060285,-121.167918361674,3.937008,,,477.12108318126,3.608924,4.1159696,5.1063321844,15.5533469544,16,5,8.402,477.77725118126,4.593176,5.4133948,8.723097392,-2.23694,4.026492,0,30.6, 1, 14.8,0,1,1024,1107,1024,1024,0,13,0,0,18.5,0,0,99,4.198,4.195,0,0,0,0,4.297,76.28,477.12108318126,3.937008,6,P-GPS,
12200,2024-01-04 22:19:53,38.7196075550823,-121.16791602681,3.608924,,,476.79299918126,3.608924,5.1002232,4.3871064396,16.3031173196,16,5,8.402,477.77725118126,4.593176,5.4133948,8.723097392,-2.460634,4.47388,0,30.5, 1.4, 10.9,0,1,1024,1024,1024,1024,0,0,0,0,18.6,0,0,99,4.198,4.195,0,0,0,0,4.297,76.28,476.79299918126,3.608924,6,P-GPS,
12300,2024-01-04 22:19:53,38.7196064289612,-121.167913392808,3.608924,,,476.79299918126,3.608924,5.3015478,3.5888452592,17.1581042236,16,5,8.402,477.77725118126,4.593176,5.4133948,8.723097392,-2.460634,4.697574,0,29.4, 1.3, -11.1,0,1,1024,1024,1024,1024,0,0,0,0,18.6,0,0,99,4.198,4.195,0,0,0,0,4.297,76.28,476.79299918126,3.608924,6,P-GPS,
12400,2024-01-04 22:19:53,38.7196054602813,-121.167910964665,3.608924,,,476.79299918126,3.608924,4.809421,2.88173893736,17.9344165844,16,5,8.402,477.77725118126,4.593176,5.4133948,8.723097392,-2.23694,4.250186,0,29.7, 0.7, -18.3,0,1,1024,1024,1024,1024,0,0,0,0,18.5,0,0,99,4.198,4.195,0,0,0,0,4.297,76.28,476.79299918126,3.608924,6,P-GPS,
12500,2024-01-04 22:19:53,38.71960464958,-121.167908704439,3.608924,,,476.79299918126,3.608924,4.0041226,2.25981634528,18.64255309,16,5,8.382,477.77725118126,4.593176,5.4133948,8.723097392,-1.789552,3.579104,0,30.3, 0.9, -19.3,0,1,1024,1024,1024,1024,0,0,0,0,18.6,0,0,99,4.191,4.19,0,0,0,0,4.31,76.46,476.79299918126,3.608924,6,P-GPS,
12600,2024-01-04 22:19:53,38.7196041633005,-121.167906399914,3.608924,,,476.79299918126,3.608924,2.9974996,1.65599414748,19.3221134792,16,5,8.382,477.77725118126,4.593176,5.4133948,8.723097392,-1.342164,2.684328,0,30.4, 1.5, -18.9,0,1,1024,1024,1024,1024,0,0,0,0,18.6,0,0,99,4.191,4.19,0,0,0,0,4.31,76.46,476.79299918126,3.608924,6,P-GPS,
12700,2024-01-04 22:19:53,38.719603766338,-121.167904883264,3.608924,,,476.79299918126,3.608924,2.1922012,1.31337274544,19.7774940712,16,5,8.382,477.77725118126,4.593176,5.4133948,8.723097392,-0.894776,2.013246,0,30.6, 1.8, -16,0,1,1024,1024,1024,1024,0,0,0,0,18.6,0,0,99,4.191,4.19,0,0,0,0,4.31,76.46,476.79299918126,3.608924,6,P-GPS,
12800,2024-01-04 22:19:53,38.7196035901404,-121.167903808086,3.608924,,,476.79299918126,3.608924,1.4987498,1.09540357836,20.0902565484,16,5,8.382,477.77725118126,4.593176,5.4133948,8.723097392,-0.671082,1.342164,0,30.8, 2.2, -12.6,0,1,1024,1024,1024,1024,0,0,0,0,18.6,0,0,99,4.191,4.19,0,0,0,0,4.31,76.46,476.79299918126,3.608924,6,P-GPS,
12900,2024-01-04 22:19:53,38.7196035891307,-121.16790302511,3.608924,,,476.79299918126,3.608924,1.006623,0.9346949118,20.3131240096,16,5,8.382,477.77725118126,4.593176,5.4133948,8.723097392,-0.447388,0.894776,0,30.9, 2, -9.7,0,1,1024,1024,1024,1024,0,0,0,0,18.6,0,0,99,4.191,4.19,0,0,0,0,4.31,76.46,476.79299918126,3.608924,6,P-GPS,
13000,2024-01-04 22:19:53,38.7196043863518,-121.167902962113,3.608924,,,476.79299918126,3.608924,0.7158208,0.72815947212,20.6045282184,16,5,8.382,477.77725118126,4.593176,5.4133948,8.723097392,-0.223694,0.671082,0,30.8, 1.8, -7.9,0,1,1024,1458,1024,1024,0,66,0,0,18.6,0,0,99,4.191,4.19,0,0,0,0,4.31,76.46,476.79299918126,3.608924,6,P-GPS,
13100,2024-01-04 22:19:54,38.7196046291039,-121.167903034592,3.608924,,,476.79299918126,3.608924,0.223694,0.70090553424,20.6954731032,16,5,8.382,477.77725118126,4.593176,5.4133948,8.723097392,0,0.223694,0,30.8, 1.6, -5.9,0,1,1024,1458,1024,1024,0,66,0,0,18.6,0,0,99,4.191,4.19,0,0,0,0,4.31,76.46,476.79299918126,3.608924,6,P-GPS,
13200,2024-01-04 22:19:54,38.7196048478007,-121.167903247374,3.608924,,,476.79299918126,3.608924,0.223694,0.72532154552,20.7956699568,16,5,8.382,477.77725118126,4.593176,5.4133948,8.723097392,0,0.223694,0,31, 1.6, 1.3,0,1,1024,1000,1024,1024,0,-4,0,0,18.5,0,0,99,4.191,4.19,0,0,0,0,4.31,76.46,476.79299918126,3.608924,6,P-GPS,
13300,2024-01-04 22:19:54,38.7196049772229,-121.167903496856,3.608924,,,476.79299918126,3.608924,0.447388,0.77979989372,20.8809389884,16,5,8.382,477.77725118126,4.593176,5.4133948,8.723097392,0,0.447388,0,31.1, 1.4, 5.6,0,1,1024,1024,1024,1024,0,0,0,0,18.5,0,0,99,4.191,4.19,0,0,0,0,4.31,76.46,476.79299918126,3.608924,6,P-GPS,
13400,2024-01-04 22:19:54,38.7196052993747,-121.167905737688,3.608924,,,476.79299918126,3.608924,0.4921268,1.39574479532,21.5295610564,16,5,8.382,477.77725118126,4.593176,5.4133948,8.723097392,-0.223694,0.447388,0,30.2, 1.5, -3.1,0,1,1024,1024,1024,1024,0,0,0,0,18.5,0,0,99,4.191,4.19,0,0,0,0,4.31,76.46,476.79299918126,3.608924,6,P-GPS,
13500,2024-01-04 22:19:54,38.7196052364679,-121.167905841495,3.608924,,,476.79299918126,3.608924,0.447388,1.42662734224,21.5669626324,16,5,8.385,477.77725118126,4.593176,5.4133948,8.723097392,0,0.447388,0,30.3, 1.3, -4.4,0,1,1024,1024,1024,1024,0,0,0,0,18.6,0,0,99,4.198,4.194,0,0,0,0,4.33,76.28,476.79299918126,3.608924,6,P-GPS,
13600,2024-01-04 22:19:54,38.7196051632401,-121.167905888118,3.608924,,,476.79299918126,3.608924,0.223694,1.44191605664,21.5968182764,16,5,8.385,477.77725118126,4.593176,5.4133948,8.723097392,0,0.223694,0,30.5, 1.1, -3.8,0,1,1024,1024,1423,1024,0,0,60,0,18.5,0,0,99,4.198,4.194,0,0,0,0,4.33,76.28,476.79299918126,3.608924,6,P-GPS,
13700,2024-01-04 22:19:54,38.7196050679468,-121.167905819317,3.608924,,,476.79299918126,3.608924,0.223694,1.42584978316,21.6367132908,16,5,8.385,477.77725118126,4.593176,5.4133948,8.723097392,0,0.223694,0,30.5, 0.9, -3.2,0,1,1024,1024,1684,1024,0,0,100,0,18.6,0,0,99,4.198,4.194,0,0,0,0,4.33,76.28,476.79299918126,3.608924,6,P-GPS,
13800,2024-01-04 22:19:54,38.7196044948061,-121.167905126557,3.608924,,,476.79299918126,3.608924,0.223694,1.2739993846,21.9241476832,16,5,8.385,477.77725118126,4.593176,5.4133948,8.723097392,0,0.223694,-0.671082,30.6, 1.1, -2.4,0,1,1024,1024,1684,1024,0,0,100,0,18.5,0,0,99,4.198,4.194,0,0,0,0,4.33,76.28,476.79299918126,3.608924,6,P-GPS,
13900,2024-01-04 22:19:54,38.7196043916377,-121.167904984888,3.608924,,,476.79299918126,3.937008,0,1.24715883256,21.9792986036,16,5,8.385,477.77725118126,4.593176,5.4133948,8.723097392,0,0,-1.342164,30.6, 1.2, -2,0,1,1024,1024,1684,1024,0,0,100,0,18.6,0,0,99,4.198,4.194,0,0,0,0,4.33,76.28,476.79299918126,3.608924,6,P-GPS,
14000,2024-01-04 22:19:54,38.7196043104435,-121.167904895875,3.937008,,,477.12108318126,4.265092,0,1.23335305784,22.0182749828,16,5,8.385,477.77725118126,4.593176,5.4133948,8.723097392,0,0,-2.23694,30.7, 1.2, -1.8,0,1,1024,1024,1684,1024,0,0,100,0,18.5,0,0,99,4.198,4.194,0,0,0,0,4.33,76.28,477.12108318126,3.937008,6,P-GPS,
14100,2024-01-04 22:19:55,38.7196042598217,-121.167904872489,4.265092,,,477.44916718126,4.593176,0,1.2337926904,22.0379272144,16,5,8.385,477.77725118126,4.593176,5.4133948,8.723097392,0,0,-2.908022,30.6, 1.2, -1.7,0,1,1024,1024,1684,1024,0,0,100,0,18.5,0,0,99,4.198,4.194,0,0,0,0,4.33,76.28,477.44916718126,4.265092,6,P-GPS,
14200,2024-01-04 22:19:55,38.7196042121343,-121.167904894071,4.92126,,,478.10533518126,4.92126,0,1.24597444932,22.0563655352,16,5,8.385,478.10533518126,4.92126,5.4133948,8.723097392,0,0,-3.802798,30.6, 1.1, -1.2,0,1,1024,1024,1684,1024,0,0,100,0,18.6,0,0,99,4.198,4.194,0,0,0,0,4.33,76.28,478.10533518126,4.92126,6,P-GPS,
14300,2024-01-04 22:19:55,38.7196040019608,-121.167904809992,5.577428,,,478.76150318126,5.577428,0,1.25534124752,22.1367133068,16,5,8.385,478.76150318126,5.577428,5.4133948,8.723097392,0,0,-4.697574,30.5, 1.3, -0.4,0,1,1024,1024,1684,1024,0,0,100,0,18.6,0,0,99,4.198,4.194,0,0,0,0,4.33,76.28,478.76150318126,5.577428,6,P-GPS,
14400,2024-01-04 22:19:55,38.7196039767688,-121.167904811816,6.56168,,,479.74575518126,6.56168,0,1.25984256,22.1458996588,16,5,8.385,479.74575518126,6.56168,5.4133948,8.723097392,0,0,-5.368656,30.5, 1.4, -0.3,0,1,1024,1024,1684,1024,0,0,100,0,18.5,0,0,99,4.198,4.194,0,0,0,0,4.33,76.28,479.74575518126,6.56168,6,P-GPS,
14500,2024-01-04 22:19:55,38.7196039810581,-121.167904708492,7.217848,,,480.40192318126,7.217848,0,1.23281828092,22.175361602,16,5,8.295,480.40192318126,7.217848,5.4133948,8.723097392,0,0,-6.039738,30.4, 1.5, -0.3,0,1,1024,1024,1684,1024,0,0,100,0,18.6,0,0,99,4.127,4.123,0,0,0,0,4.849,76.46,480.40192318126,7.217848,6,P-GPS,
14600,2024-01-04 22:19:55,38.719603975681,-121.167904591669,8.2021,,,481.38617518126,8.2021,0,1.20412405428,22.208662128,16,5,8.295,481.38617518126,8.2021,5.4133948,8.723097392,0,0,-6.263432,30.5, 1.3, -0.4,0,1,1024,1024,1684,1024,0,0,100,0,18.6,0,0,99,4.127,4.123,0,0,0,0,4.849,76.46,481.38617518126,8.2021,6,P-GPS,
14700,2024-01-04 22:19:55,38.7196040642,-121.167903977429,9.186352,,,482.37042718126,9.186352,0,1.03548559744,22.386483656,16,5,8.295,482.37042718126,9.186352,5.4133948,8.723097392,0,0,-6.487126,30.4, 1.6, -0.3,0,1,1024,1024,1684,1024,0,0,100,0,18.5,0,0,99,4.127,4.123,0,0,0,0,4.849,76.46,482.37042718126,9.186352,6,P-GPS,
14800,2024-01-04 22:19:55,38.7196040366662,-121.16790394127,10.170604,,,483.35467918126,10.170604,0,1.03179465244,22.4008537352,16,5,8.295,483.35467918126,10.170604,5.4133948,8.723097392,0,0,-6.487126,30.4, 1.6, -0.5,0,1,1024,1024,1684,1024,0,0,100,0,18.6,0,0,99,4.127,4.123,0,0,0,0,4.849,76.46,483.35467918126,10.170604,6,P-GPS,
14900,2024-01-04 22:19:55,38.7196039846798,-121.167904049491,11.154856,,,484.33893118126,11.154856,0,1.06797247512,22.4370414004,16,5,8.295,484.33893118126,11.154856,5.4133948,8.723097392,0,0,-6.71082,30.4, 1.4, -0.5,0,1,1024,1024,1684,1024,0,0,100,0,18.6,0,0,99,4.127,4.123,0,0,0,0,4.849,76.46,484.33893118126,11.154856,6,P-GPS,
15000,2024-01-04 22:19:55,38.7196038646244,-121.167904158067,12.139108,,,485.32318318126,12.139108,0,1.11731630872,22.490650326,16,5,8.295,485.32318318126,12.139108,5.4133948,8.723097392,0,0,-6.71082,30.5, 1.2, -0.3,0,1,1024,1024,1684,1024,0,0,100,0,18.6,0,0,99,4.127,4.123,0,0,0,0,4.849,76.46,485.32318318126,12.139108,6,P-GPS,
15100,2024-01-04 22:19:56,38.7196034251985,-121.167904587343,13.12336,,,486.30743518126,13.12336,0,1.30819229908,22.6922251356,16,5,8.295,486.30743518126,13.12336,5.4133948,8.723097392,0,0,-6.71082,30.5, 1.3, -0.2,0,1,1024,1024,1684,1024,0,0,100,0,18.6,0,0,99,4.127,4.123,0,0,0,0,4.849,76.46,486.30743518126,13.12336,6,P-GPS,
15200,2024-01-04 22:19:56,38.7196033192422,-121.167904597177,14.107612,,,487.29168718126,13.779528,0,1.3332021424,22.7310046644,16,5,8.295,487.29168718126,14.107612,5.4133948,8.723097392,0,0,-6.71082,30.5, 1.8, 0,0,1,1024,1024,1684,1024,0,0,100,0,18.6,0,0,99,4.127,4.123,0,0,0,0,4.849,76.46,487.29168718126,14.107612,6,P-GPS,
15300,2024-01-04 22:19:56,38.7196033627184,-121.167904476349,15.091864,,,488.27593918126,14.76378,0,1.29616802048,22.768865558,16,5,8.295,488.27593918126,15.091864,5.4133948,8.723097392,0,0,-6.71082,30.5, 1.5, -0.2,0,1,1024,1024,1684,1024,0,0,100,0,18.6,0,0,99,4.127,4.123,0,0,0,0,4.849,76.46,488.27593918126,15.091864,6,P-GPS,
15400,2024-01-04 22:19:56,38.7196033882329,-121.167904343881,16.076116,,,489.26019118126,15.748032,0,1.26055122144,22.8077107036,16,5,8.295,489.26019118126,16.076116,5.4133948,8.723097392,0,0,-6.487126,30.4, 1.4, -0.3,0,1,1024,1024,1684,1024,0,0,100,0,18.6,0,0,99,4.127,4.123,0,0,0,0,4.849,76.46,489.26019118126,16.076116,6,P-GPS,
15500,2024-01-04 22:19:56,38.7196038098337,-121.167903744314,17.060368,,,490.24444318126,16.732284,0,1.03158139784,23.0374679288,16,5,8.312,490.24444318126,17.060368,5.4133948,8.723097392,0,0,-6.487126,30.5, 1.3, -0.2,0,1,1024,1024,1684,1024,0,0,100,0,18.6,0,0,99,4.166,4.165,0,0,0,0,6.042,76.46,490.24444318126,17.060368,6,P-GPS,
15600,2024-01-04 22:19:56,38.7196037567921,-121.167903745264,18.04462,,,491.22869518126,17.388452,0,1.04349412788,23.0568248848,16,5,8.312,491.22869518126,18.04462,5.4133948,8.723097392,0,0,-6.487126,30.5, 1.4, 0,0,1,1024,1024,1684,1024,0,0,100,0,18.6,0,0,99,4.166,4.165,0,0,0,0,6.042,76.46,491.22869518126,18.04462,6,P-GPS,
15700,2024-01-04 22:19:56,38.7196036216052,-121.167903958043,19.028872,,,492.21294718126,18.372704,0,1.12158140072,23.1349416852,16,5,8.312,492.21294718126,19.028872,5.4133948,8.723097392,0,0,-6.487126,30.5, 1.2, 0,0,1,1024,1024,1684,1024,0,0,100,0,18.5,0,0,99,4.166,4.165,0,0,0,0,6.042,76.46,492.21294718126,19.028872,6,P-GPS,
15800,2024-01-04 22:19:56,38.7196034310153,-121.167904174184,20.013124,,,493.19719918126,19.356956,0,1.21291670548,23.2277894572,16,5,8.312,493.19719918126,20.013124,5.4133948,8.723097392,0,0,-6.487126,30.5, 1.3, -0.2,0,1,1024,1024,1684,1024,0,0,100,0,18.6,0,0,99,4.166,4.165,0,0,0,0,6.042,76.46,493.19719918126,20.013124,6,P-GPS,
15900,2024-01-04 22:19:56,38.7196031475097,-121.167904406499,20.997376,,,494.18145118126,20.341208,0,1.32968180108,23.35055849,16,5,8.312,494.18145118126,20.997376,5.4133948,8.723097392,0,0,-6.487126,30.5, 1.3, -0.6,0,1,1024,1024,1684,1024,0,0,100,0,18.5,0,0,99,4.166,4.165,0,0,0,0,6.042,76.46,494.18145118126,20.997376,6,P-GPS,
16000,2024-01-04 22:19:56,38.7196025622177,-121.167905198312,21.981628,,,495.16570318126,21.32546,0,1.6397802362,23.6610571876,16,5,8.312,495.16570318126,21.981628,5.4133948,8.723097392,0,0,-6.487126,30.5, 1.3, -0.5,0,1,1024,1024,1684,1024,0,0,100,0,18.6,0,0,99,4.166,4.165,0,0,0,0,6.042,76.46,495.16570318126,21.981628,6,P-GPS,
16100,2024-01-04 22:19:57,38.7196023126195,-121.167905049864,22.96588,,,496.14995518126,22.309712,0,1.67018378048,23.7614508916,16,5,8.312,496.14995518126,22.96588,5.4133948,8.723097392,0,0,-6.487126,30.6, 1.2, -0.3,0,1,1024,1024,1684,1024,0,0,100,0,18.6,0,0,99,4.166,4.165,0,0,0,0,6.042,76.46,496.14995518126,22.96588,6,P-GPS,
16200,2024-01-04 22:19:57,38.7196021115816,-121.1679049827,23.622048,,,496.80612318126,22.96588,0,1.70885176072,23.8372382956,16,5,8.312,496.80612318126,23.622048,5.4133948,8.723097392,0,0,-6.487126,30.5, 1.2, -0.3,0,1,1024,1024,1684,1024,0,0,100,0,18.6,0,0,99,4.166,4.165,0,0,0,0,6.042,76.46,496.80612318126,23.622048,6,P-GPS,
16300,2024-01-04 22:19:57,38.7196019661713,-121.167905045786,24.6063,,,497.79037518126,23.950132,0,1.75980648676,23.8932422344,16,5,8.312,497.79037518126,24.6063,5.4133948,8.723097392,0,0,-6.487126,30.5, 1.2, -0.2,0,1,1024,1024,1684,1024,0,0,100,0,18.6,0,0,99,4.166,4.165,0,0,0,0,6.042,76.46,497.79037518126,24.6063,6,P-GPS,
16400,2024-01-04 22:19:57,38.7196017900128,-121.167904866975,25.590552,,,498.77462718126,24.934384,0,1.77416016176,23.975230426,16,5,8.312,498.77462718126,25.590552,5.4133948,8.723097392,0,0,-6.71082,30.5, 1.2, 0,0,1,1024,1024,1684,1024,0,0,100,0,18.6,0,0,99,4.166,4.165,0,0,0,0,6.042,76.46,498.77462718126,25.590552,6,P-GPS,
16500,2024-01-04 22:19:57,38.7196015306505,-121.167905084895,26.574804,,,499.75887918126,25.918636,0,1.88651908924,24.0883865976,16,5,8.312,499.75887918126,26.574804,5.4133948,8.723097392,0,0,-6.71082,30.6, 1.1, -0.1,0,1,1024,1024,1684,1024,0,0,100,0,18.5,0,0,99,4.166,4.165,0,0,0,0,6.042,76.46,499.75887918126,26.574804,6,P-GPS,
16600,2024-01-04 22:19:57,38.7196012854915,-121.167905248691,27.559056,,,500.74313118126,27.230972,0,1.98519363308,24.1892396192,16,5,8.33,500.74313118126,27.559056,5.4133948,8.723097392,0,0,-6.71082,30.5, 1.6, -0.2,0,1,1024,1024,1684,1024,0,0,100,0,18.5,0,0,99,4.165,4.164,0,0,0,0,5.007,76.46,500.74313118126,27.559056,6,P-GPS,
16700,2024-01-04 22:19:57,38.7196010331153,-121.167905340248,28.543308,,,501.72738318126,28.215224,0,2.0733760506,24.284941722,16,5,8.33,501.72738318126,28.543308,5.4133948,8.723097392,0,0,-6.487126,30.5, 1.5, -0.4,0,1,1024,1024,1684,1024,0,0,100,0,18.5,0,0,99,4.165,4.164,0,0,0,0,5.007,76.46,501.72738318126,28.543308,6,P-GPS,
16800,2024-01-04 22:19:57,38.7196006714476,-121.167905745609,29.52756,,,502.71163518126,29.199476,0,2.248441673,24.4602370032,16,5,8.33,502.71163518126,29.52756,5.4133948,8.723097392,0,0,-6.487126,30.5, 1.2, -0.4,0,1,1024,1024,1684,1024,0,0,100,0,18.5,0,0,99,4.165,4.164,0,0,0,0,5.007,76.46,502.71163518126,29.52756,6,P-GPS,
16900,2024-01-04 22:19:57,38.7196004267088,-121.167905839894,30.511812,,,503.69588718126,30.511812,0,2.33535440544,24.553478476,16,5,8.33,503.69588718126,30.511812,5.4133948,8.723097392,0,0,-6.487126,30.6, 1.1, -0.1,0,1,1024,1024,1684,1024,0,0,100,0,18.6,0,0,99,4.165,4.164,0,0,0,0,5.007,76.46,503.69588718126,30.511812,6,P-GPS,
17000,2024-01-04 22:19:58,38.7196001787033,-121.16790596877,31.496064,,,504.68013918126,31.824148,0,2.42959653444,24.6511162744,16,5,8.33,504.68013918126,31.496064,5.4133948,8.723097392,0,0,-6.487126,30.5, 0.9, -0.1,0,1,1024,1024,1684,1024,0,0,100,0,18.6,0,0,99,4.165,4.164,0,0,0,0,5.007,76.46,504.68013918126,31.496064,6,P-GPS,
17100,2024-01-04 22:19:58,38.7195999023791,-121.167906157013,32.480316,,,505.66439118126,32.8084,0,2.54244758792,24.7652895064,16,5,8.33,505.66439118126,32.480316,5.4133948,8.723097392,0,0,-6.487126,30.6, 0.9, -0.1,0,1,1024,1024,1684,1024,0,0,100,0,18.6,0,0,99,4.165,4.164,0,0,0,0,5.007,76.46,505.66439118126,32.480316,6,P-GPS,
17200,2024-01-04 22:19:58,38.7195996890106,-121.16790657668,33.464568,,,506.64864318126,33.792652,0,2.67656504628,24.9078748128,16,5,8.33,506.64864318126,33.464568,5.4133948,8.723097392,0,0,-6.487126,30.6, 1.1, 0,0,1,1024,1024,1684,1024,0,0,100,0,18.5,0,0,99,4.165,4.164,0,0,0,0,5.007,76.46,506.64864318126,33.464568,6,P-GPS,
17300,2024-01-04 22:19:58,38.7195994788925,-121.167906736964,34.44882,,,507.63289518126,34.776904,0,2.76516741132,24.9970808524,16,5,8.33,507.63289518126,34.44882,5.4133948,8.723097392,0,0,-6.487126,30.6, 1.1, 0.1,0,1,1024,1024,1684,1024,0,0,100,0,18.6,0,0,99,4.165,4.164,0,0,0,0,5.007,76.46,507.63289518126,34.44882,6,P-GPS,
17400,2024-01-04 22:19:58,38.7195993210311,-121.167906859174,35.433072,,,508.61714718126,35.761156,0,2.83206373892,25.0643708808,16,5,8.33,508.61714718126,35.433072,5.4133948,8.723097392,0,0,-6.487126,30.5, 1.2, -0.1,0,1,1024,1024,1684,1024,0,0,100,0,18.6,0,0,99,4.165,4.164,0,0,0,0,5.007,76.46,508.61714718126,35.433072,6,P-GPS,
17500,2024-01-04 22:19:58,38.7195992256434,-121.167906936343,36.417324,,,509.60139918126,36.745408,0,2.87306767724,25.1055454228,16,5,8.33,509.60139918126,36.417324,5.4133948,8.723097392,0,0,-6.487126,30.5, 1.1, 0,0,1,1024,1024,1684,1024,0,0,100,0,18.6,0,0,99,4.165,4.164,0,0,0,0,5.007,76.46,509.60139918126,36.417324,6,P-GPS,
17600,2024-01-04 22:19:58,38.7195991149613,-121.167907031376,37.401576,,,510.58565118126,37.72966,0,2.92159130084,25.1541346632,16,5,8.327,510.58565118126,37.401576,5.4133948,8.723097392,0,0,-6.71082,30.5, 1.1, 0,0,1,1024,1024,1684,1024,0,0,100,0,18.6,0,0,99,4.164,4.161,0,0,0,0,4.949,76.64,510.58565118126,37.401576,6,P-GPS,
17700,2024-01-04 22:19:58,38.7195992207157,-121.167907235543,38.713912,,,511.89798718126,38.713912,0,2.92669628788,25.22391813,16,5,8.327,511.89798718126,38.713912,5.4133948,8.723097392,0,0,-6.71082,30.5, 1.1, 0.1,0,1,1024,1024,1684,1024,0,0,100,0,18.6,0,0,99,4.164,4.161,0,0,0,0,4.949,76.64,511.89798718126,38.713912,6,P-GPS,
17800,2024-01-04 22:19:58,38.7195990321126,-121.167907365133,39.698164,,,512.88223918126,39.698164,0,3.00355652656,25.3019693136,16,5,8.327,512.88223918126,39.698164,5.4133948,8.723097392,0,0,-6.71082,30.5, 1, 0,0,1,1024,1024,1684,1024,0,0,100,0,18.6,0,0,99,4.164,4.161,0,0,0,0,4.949,76.64,512.88223918126,39.698164,6,P-GPS,
17900,2024-01-04 22:19:58,38.7195987738479,-121.167907487558,40.354332,,,513.53840718126,40.682416,0,3.09931440364,25.4024614428,16,5,8.327,513.53840718126,40.354332,5.4133948,8.723097392,0,0,-6.71082,30.5, 1.2, -0.2,0,1,1024,1024,1684,1024,0,0,100,0,18.6,0,0,99,4.164,4.161,0,0,0,0,4.949,76.64,513.53840718126,40.354332,6,P-GPS,
18000,2024-01-04 22:19:58,38.7195985099813,-121.167907586697,41.338584,,,514.52265918126,41.666668,0,3.19300207068,25.5027567216,16,5,8.327,514.52265918126,41.338584,5.4133948,8.723097392,0,0,-6.71082,30.5, 1.2, -0.2,0,1,1024,1024,1684,1024,0,0,100,0,18.6,0,0,99,4.164,4.161,0,0,0,0,4.949,76.64,514.52265918126,41.338584,6,P-GPS,
18100,2024-01-04 22:19:59,38.7195979935757,-121.167907711554,42.322836,,,515.50691118126,42.65092,0,3.365977798,25.6944890112,16,5,8.327,515.50691118126,42.322836,5.4133948,8.723097392,0,0,-6.71082,30.5, 1.2, 0,0,1,1024,1024,1684,1024,0,0,100,0,18.5,0,0,99,4.164,4.161,0,0,0,0,4.949,76.64,515.50691118126,42.322836,6,P-GPS,
18200,2024-01-04 22:19:59,38.7195977600438,-121.167907776483,43.307088,,,516.49116318126,42.979004,0,3.4462271444,25.7816937384,16,5,8.327,516.49116318126,43.307088,5.4133948,8.723097392,0,0,-6.71082,30.4, 1.5, -0.2,0,1,1024,1024,1684,1024,0,0,100,0,18.5,0,0,99,4.164,4.161,0,0,0,0,4.949,76.64,516.49116318126,43.307088,6,P-GPS,
