DPTS,Security:,Security Classification,UAS LS Version,UNIX Time Stamp date,Frame,UNIX Time Stamp,Checksum,Mission _ Platform,Mission ID,Platform Designation,Platform Tail Number,Laser PRF Code,Flight Data:,Platform Fuel Remaining,Density Altitude,Platform True Airspeed,Platform Indicated Airspeed,Platform Ground Speed,Platform Heading Angle,Platform Magnetic Heading,Platform Angle of Attack,Platform Pitch Angle,Platform Roll Angle,Static Pressure,Outside Air Temperature,Icing Detected,Wind Direction,Wind Speed,Sensor Data:,Image Source Sensor,Image Coordinate System,Alt Feet,Sensor True Altitude,Sensor Latitude,Sensor Longitude,Sensor Horizontal Field of View,focal len,Sensor Vertical Field of View,Sensor Relative Azimuth Angle,Sensor Relative Elevation Angle,Sensor Relative Roll Angle,Target Data:,Slant Range,Ground Range,Target Width,Frame Center Latitude,Frame Center Longitude,Frame Center Elevation,Generic Flag Data:,Laser Range,Auto-Track,IR Polarity,Icing Status,Slant Range,Image Invalid,Reserved bit6,Reserved bit7,PTS,DUTC
,,,,40000,0,1678451340000,,,,,,,,,,,,,123.4567891,123.4567891,-0.123456789,-0.123456789,-0.123456789,123.4567891,,,123.4567891,123.4567891,,,Geodetic WGS84,1875,571.5,18.5025,-67.09666667,1.123456789,675,0.8,123.1234567,-1.123456789,,,12345.12345,12345.12345,9999.999999,18.50416667,-67.15666667,0,,,,,,,,,,,
,,,,,1,1678451340033,,,,,,,,,,,,,,,,,,,,,,,,,,1875,571.5,18.5025,-67.09666667,,675,0.8,,,,,,,,18.50416667,-67.15666667,0,,,,,,,,,,,
,,,,,2,1678451340067,,,,,,,,,,,,,,,,,,,,,,,,,,1875,571.5,18.5025,-67.09666667,,675,0.8,,,,,,,,18.50416667,-67.15666667,0,,,,,,,,,,,
,,,,,3,1678451340100,,,,,,,,,,,,,,,,,,,,,,,,,,1875,571.5,18.5025,-67.09666667,,675,0.8,,,,,,,,18.50416667,-67.15666667,0,,,,,,,,,,,
,,,,,4,1678451340133,,,,,,,,,,,,,,,,,,,,,,,,,,1875,571.5,18.5025,-67.09666667,,675,0.8,,,,,,,,18.50416667,-67.15666667,0,,,,,,,,,,,
,,,,,5,1678451340167,,,,,,,,,,,,,,,,,,,,,,,,,,1875,571.5,18.5025,-67.09666667,,675,0.8,,,,,,,,18.50416667,-67.15666667,0,,,,,,,,,,,
,,,,,6,1678451340200,,,,,,,,,,,,,,,,,,,,,,,,,,1875,571.5,18.5025,-67.09666667,,675,0.8,,,,,,,,18.50416667,-67.15666667,0,,,,,,,,,,,
,,,,,7,1678451340233,,,,,,,,,,,,,,,,,,,,,,,,,,1875,571.5,18.5025,-67.09666667,,135,4,,,,,,,,18.50416667,-67.15666667,0,,,,,,,,,,,
,,,,,8,1678451340267,,,,,,,,,,,,,,,,,,,,,,,,,,1875,571.5,18.50277778,-67.09666667,,135,4,,,,,,,,18.50416667,-67.15666667,0,,,,,,,,,,,
,,,,,9,1678451340300,,,,,,,,,,,,,,,,,,,,,,,,,,1875,571.5,18.50277778,-67.09666667,,135,4,,,,,,,,18.50416667,-67.15666667,0,,,,,,,,,,,
,,,,,10,1678451340333,,,,,,,,,,,,,,,,,,,,,,,,,,1875,571.5,18.50277778,-67.09666667,,135,4,,,,,,,,18.50416667,-67.15666667,0,,,,,,,,,,,
,,,,,11,1678451340367,,,,,,,,,,,,,,,,,,,,,,,,,,1875,571.5,18.50277778,-67.09666667,,135,4,,,,,,,,18.50416667,-67.15666667,0,,,,,,,,,,,
,,,,,12,1678451340400,,,,,,,,,,,,,,,,,,,,,,,,,,1875,571.5,18.50277778,-67.09666667,,135,4,,,,,,,,18.50416667,-67.15666667,0,,,,,,,,,,,
,,,,,13,1678451340433,,,,,,,,,,,,,,,,,,,,,,,,,,1875,571.5,18.50277778,-67.09666667,,135,4,,,,,,,,18.50416667,-67.15666667,0,,,,,,,,,,,
,,,,,14,1678451340467,,,,,,,,,,,,,,,,,,,,,,,,,,1876,571.8048,18.50277778,-67.09666667,,135,4,,,,,,,,18.50388889,-67.15666667,0,,,,,,,,,,,
,,,,,15,1678451340500,,,,,,,,,,,,,,,,,,,,,,,,,,1876,571.8048,18.50305556,-67.09666667,,135,4,,,,,,,,18.50388889,-67.15666667,0,,,,,,,,,,,
,,,,,16,1678451340533,,,,,,,,,,,,,,,,,,,,,,,,,,1876,571.8048,18.50305556,-67.09666667,,135,4,,,,,,,,18.50388889,-67.15666667,0,,,,,,,,,,,
,,,,,17,1678451340567,,,,,,,,,,,,,,,,,,,,,,,,,,1876,571.8048,18.50305556,-67.09666667,,135,4,,,,,,,,18.50388889,-67.15666667,0,,,,,,,,,,,
,,,,,18,1678451340600,,,,,,,,,,,,,,,,,,,,,,,,,,1876,571.8048,18.50305556,-67.09666667,,135,4,,,,,,,,18.50388889,-67.15666667,0,,,,,,,,,,,
,,,,,19,1678451340633,,,,,,,,,,,,,,,,,,,,,,,,,,1876,571.8048,18.50305556,-67.09666667,,135,4,,,,,,,,18.50361111,-67.15666667,0,,,,,,,,,,,
,,,,,20,1678451340667,,,,,,,,,,,,,,,,,,,,,,,,,,1876,571.8048,18.50305556,-67.09666667,,135,4,,,,,,,,18.50361111,-67.15666667,0,,,,,,,,,,,
,,,,,21,1678451340700,,,,,,,,,,,,,,,,,,,,,,,,,,1876,571.8048,18.50305556,-67.09666667,,135,4,,,,,,,,18.50361111,-67.15666667,0,,,,,,,,,,,
,,,,,22,1678451340733,,,,,,,,,,,,,,,,,,,,,,,,,,1876,571.8048,18.50305556,-67.09666667,,135,4,,,,,,,,18.50361111,-67.15666667,0,,,,,,,,,,,
,,,,,23,1678451340767,,,,,,,,,,,,,,,,,,,,,,,,,,1876,571.8048,18.50305556,-67.09666667,,135,4,,,,,,,,18.50361111,-67.15666667,0,,,,,,,,,,,
,,,,,24,1678451340800,,,,,,,,,,,,,,,,,,,,,,,,,,1876,571.8048,18.50305556,-67.09666667,,135,4,,,,,,,,18.50361111,-67.15666667,0,,,,,,,,,,,
,,,,,25,1678451340833,,,,,,,,,,,,,,,,,,,,,,,,,,1876,571.8048,18.50305556,-67.09666667,,135,4,,,,,,,,18.50361111,-67.15666667,0,,,,,,,,,,,
,,,,,26,1678451340867,,,,,,,,,,,,,,,,,,,,,,,,,,1876,571.8048,18.50305556,-67.09666667,,135,4,,,,,,,,18.50361111,-67.15666667,0,,,,,,,,,,,
,,,,,27,1678451340900,,,,,,,,,,,,,,,,,,,,,,,,,,1877,572.1096,18.50305556,-67.09666667,,135,4,,,,,,,,18.50361111,-67.15666667,0,,,,,,,,,,,
,,,,,28,1678451340933,,,,,,,,,,,,,,,,,,,,,,,,,,1877,572.1096,18.50333333,-67.09666667,,135,4,,,,,,,,18.50361111,-67.15666667,0,,,,,,,,,,,
,,,,,29,1678451340967,,,,,,,,,,,,,,,,,,,,,,,,,,1877,572.1096,18.50333333,-67.09666667,,135,4,,,,,,,,18.50361111,-67.15666667,0,,,,,,,,,,,
,,,,,30,1678451341000,,,,,,,,,,,,,,,,,,,,,,,,,,1877,572.1096,18.50333333,-67.09666667,,135,4,,,,,,,,18.50361111,-67.15666667,0,,,,,,,,,,,
,,,,,31,1678451341033,,,,,,,,,,,,,,,,,,,,,,,,,,1877,572.1096,18.50333333,-67.09666667,,135,4,,,,,,,,18.50361111,-67.15666667,0,,,,,,,,,,,
,,,,,32,1678451341067,,,,,,,,,,,,,,,,,,,,,,,,,,1877,572.1096,18.50333333,-67.09666667,,135,4,,,,,,,,18.50361111,-67.15666667,0,,,,,,,,,,,
,,,,,33,1678451341100,,,,,,,,,,,,,,,,,,,,,,,,,,1878,572.4144,18.50333333,-67.09666667,,135,4,,,,,,,,18.50361111,-67.15666667,0,,,,,,,,,,,
,,,,,34,1678451341133,,,,,,,,,,,,,,,,,,,,,,,,,,1878,572.4144,18.50333333,-67.09666667,,135,4,,,,,,,,18.50333333,-67.15666667,0,,,,,,,,,,,
,,,,,35,1678451341167,,,,,,,,,,,,,,,,,,,,,,,,,,1878,572.4144,18.50361111,-67.09666667,,135,4,,,,,,,,18.50333333,-67.15666667,0,,,,,,,,,,,
,,,,,36,1678451341200,,,,,,,,,,,,,,,,,,,,,,,,,,1878,572.4144,18.50361111,-67.09666667,,135,4,,,,,,,,18.50333333,-67.15666667,0,,,,,,,,,,,
,,,,,37,1678451341233,,,,,,,,,,,,,,,,,,,,,,,,,,1878,572.4144,18.50361111,-67.09666667,,135,4,,,,,,,,18.50333333,-67.15666667,0,,,,,,,,,,,
,,,,,38,1678451341267,,,,,,,,,,,,,,,,,,,,,,,,,,1878,572.4144,18.50361111,-67.09666667,,135,4,,,,,,,,18.50333333,-67.15666667,0,,,,,,,,,,,
,,,,,39,1678451341300,,,,,,,,,,,,,,,,,,,,,,,,,,1878,572.4144,18.50361111,-67.09666667,,135,4,,,,,,,,18.50333333,-67.15666667,0,,,,,,,,,,,
,,,,,40,1678451341333,,,,,,,,,,,,,,,,,,,,,,,,,,1879,572.7192,18.50361111,-67.09666667,,135,4,,,,,,,,18.50277778,-67.15666667,0,,,,,,,,,,,
,,,,,41,1678451341367,,,,,,,,,,,,,,,,,,,,,,,,,,1879,572.7192,18.50361111,-67.09666667,,135,4,,,,,,,,18.50277778,-67.15666667,0,,,,,,,,,,,
,,,,,42,1678451341400,,,,,,,,,,,,,,,,,,,,,,,,,,1879,572.7192,18.50361111,-67.09666667,,135,4,,,,,,,,18.50277778,-67.15666667,0,,,,,,,,,,,
,,,,,43,1678451341433,,,,,,,,,,,,,,,,,,,,,,,,,,1879,572.7192,18.50361111,-67.09666667,,135,4,,,,,,,,18.50277778,-67.15666667,0,,,,,,,,,,,
,,,,,44,1678451341467,,,,,,,,,,,,,,,,,,,,,,,,,,1879,572.7192,18.50361111,-67.09666667,,135,4,,,,,,,,18.50277778,-67.15666667,0,,,,,,,,,,,
,,,,,45,1678451341500,,,,,,,,,,,,,,,,,,,,,,,,,,1879,572.7192,18.50361111,-67.09666667,,135,4,,,,,,,,18.50277778,-67.15666667,0,,,,,,,,,,,
,,,,,46,1678451341533,,,,,,,,,,,,,,,,,,,,,,,,,,1879,572.7192,18.50361111,-67.09666667,,135,4,,,,,,,,18.50277778,-67.15666667,0,,,,,,,,,,,
,,,,,47,1678451341567,,,,,,,,,,,,,,,,,,,,,,,,,,1879,572.7192,18.50361111,-67.09666667,,135,4,,,,,,,,18.5025,-67.15638889,0,,,,,,,,,,,
,,,,,48,1678451341600,,,,,,,,,,,,,,,,,,,,,,,,,,1879,572.7192,18.50388889,-67.09666667,,135,4,,,,,,,,18.5025,-67.15638889,0,,,,,,,,,,,
,,,,,49,1678451341633,,,,,,,,,,,,,,,,,,,,,,,,,,1879,572.7192,18.50388889,-67.09666667,,135,4,,,,,,,,18.5025,-67.15638889,0,,,,,,,,,,,
,,,,,50,1678451341667,,,,,,,,,,,,,,,,,,,,,,,,,,1879,572.7192,18.50388889,-67.09666667,,135,4,,,,,,,,18.5025,-67.15638889,0,,,,,,,,,,,
,,,,,51,1678451341700,,,,,,,,,,,,,,,,,,,,,,,,,,1879,572.7192,18.50388889,-67.09666667,,135,4,,,,,,,,18.5025,-67.15638889,0,,,,,,,,,,,
,,,,,52,1678451341733,,,,,,,,,,,,,,,,,,,,,,,,,,1879,572.7192,18.50388889,-67.09666667,,135,4,,,,,,,,18.5025,-67.15638889,0,,,,,,,,,,,
,,,,,53,1678451341767,,,,,,,,,,,,,,,,,,,,,,,,,,1879,572.7192,18.50388889,-67.09666667,,135,4,,,,,,,,18.5025,-67.15638889,0,,,,,,,,,,,
,,,,,54,1678451341800,,,,,,,,,,,,,,,,,,,,,,,,,,1879,572.7192,18.50388889,-67.09666667,,135,4,,,,,,,,18.50222222,-67.15666667,0,,,,,,,,,,,
,,,,,55,1678451341833,,,,,,,,,,,,,,,,,,,,,,,,,,1879,572.7192,18.50416667,-67.09666667,,135,4,,,,,,,,18.50222222,-67.15666667,0,,,,,,,,,,,
,,,,,56,1678451341867,,,,,,,,,,,,,,,,,,,,,,,,,,1879,572.7192,18.50416667,-67.09666667,,135,4,,,,,,,,18.50222222,-67.15666667,0,,,,,,,,,,,
,,,,,57,1678451341900,,,,,,,,,,,,,,,,,,,,,,,,,,1879,572.7192,18.50416667,-67.09666667,,135,4,,,,,,,,18.50222222,-67.15666667,0,,,,,,,,,,,
,,,,,58,1678451341933,,,,,,,,,,,,,,,,,,,,,,,,,,1879,572.7192,18.50416667,-67.09666667,,135,4,,,,,,,,18.50222222,-67.15666667,0,,,,,,,,,,,
,,,,,59,1678451341967,,,,,,,,,,,,,,,,,,,,,,,,,,1879,572.7192,18.50416667,-67.09666667,,135,4,,,,,,,,18.50222222,-67.15666667,0,,,,,,,,,,,
,,,,,60,1678451342000,,,,,,,,,,,,,,,,,,,,,,,,,,1880,573.024,18.50416667,-67.09666667,,135,4,,,,,,,,18.50194444,-67.15666667,0,,,,,,,,,,,
,,,,,61,1678451342033,,,,,,,,,,,,,,,,,,,,,,,,,,1880,573.024,18.50416667,-67.09666667,,135,4,,,,,,,,18.50194444,-67.15666667,0,,,,,,,,,,,
,,,,,62,1678451342067,,,,,,,,,,,,,,,,,,,,,,,,,,1880,573.024,18.50416667,-67.09666667,,135,4,,,,,,,,18.50194444,-67.15666667,0,,,,,,,,,,,
,,,,,63,1678451342100,,,,,,,,,,,,,,,,,,,,,,,,,,1880,573.024,18.50416667,-67.09666667,,135,4,,,,,,,,18.50194444,-67.15666667,0,,,,,,,,,,,
,,,,,64,1678451342133,,,,,,,,,,,,,,,,,,,,,,,,,,1880,573.024,18.50416667,-67.09666667,,135,4,,,,,,,,18.50194444,-67.15666667,0,,,,,,,,,,,
,,,,,65,1678451342167,,,,,,,,,,,,,,,,,,,,,,,,,,1880,573.024,18.50416667,-67.09666667,,135,4,,,,,,,,18.50194444,-67.15666667,0,,,,,,,,,,,
,,,,,66,1678451342200,,,,,,,,,,,,,,,,,,,,,,,,,,1880,573.024,18.50416667,-67.09666667,,135,4,,,,,,,,18.50194444,-67.15666667,0,,,,,,,,,,,
,,,,,67,1678451342233,,,,,,,,,,,,,,,,,,,,,,,,,,1881,573.3288,18.50416667,-67.09666667,,135,4,,,,,,,,18.50194444,-67.15694444,0,,,,,,,,,,,
,,,,,68,1678451342267,,,,,,,,,,,,,,,,,,,,,,,,,,1881,573.3288,18.50444444,-67.09666667,,135,4,,,,,,,,18.50194444,-67.15694444,0,,,,,,,,,,,
,,,,,69,1678451342300,,,,,,,,,,,,,,,,,,,,,,,,,,1881,573.3288,18.50444444,-67.09666667,,135,4,,,,,,,,18.50194444,-67.15694444,0,,,,,,,,,,,
,,,,,70,1678451342333,,,,,,,,,,,,,,,,,,,,,,,,,,1881,573.3288,18.50444444,-67.09666667,,135,4,,,,,,,,18.50194444,-67.15694444,0,,,,,,,,,,,
,,,,,71,1678451342367,,,,,,,,,,,,,,,,,,,,,,,,,,1881,573.3288,18.50444444,-67.09666667,,135,4,,,,,,,,18.50194444,-67.15694444,0,,,,,,,,,,,
,,,,,72,1678451342400,,,,,,,,,,,,,,,,,,,,,,,,,,1881,573.3288,18.50444444,-67.09666667,,135,4,,,,,,,,18.50194444,-67.15694444,0,,,,,,,,,,,
,,,,,73,1678451342433,,,,,,,,,,,,,,,,,,,,,,,,,,1881,573.3288,18.50444444,-67.09666667,,135,4,,,,,,,,18.50194444,-67.15694444,0,,,,,,,,,,,
,,,,,74,1678451342467,,,,,,,,,,,,,,,,,,,,,,,,,,1881,573.3288,18.50444444,-67.09666667,,135,4,,,,,,,,18.50194444,-67.15694444,0,,,,,,,,,,,
,,,,,75,1678451342500,,,,,,,,,,,,,,,,,,,,,,,,,,1881,573.3288,18.50472222,-67.09666667,,135,4,,,,,,,,18.50194444,-67.15694444,0,,,,,,,,,,,
,,,,,76,1678451342533,,,,,,,,,,,,,,,,,,,,,,,,,,1881,573.3288,18.50472222,-67.09666667,,135,4,,,,,,,,18.50194444,-67.15694444,0,,,,,,,,,,,
,,,,,77,1678451342567,,,,,,,,,,,,,,,,,,,,,,,,,,1881,573.3288,18.50472222,-67.09666667,,135,4,,,,,,,,18.50194444,-67.15694444,0,,,,,,,,,,,
,,,,,78,1678451342600,,,,,,,,,,,,,,,,,,,,,,,,,,1881,573.3288,18.50472222,-67.09666667,,135,4,,,,,,,,18.50194444,-67.15694444,0,,,,,,,,,,,
,,,,,79,1678451342633,,,,,,,,,,,,,,,,,,,,,,,,,,1881,573.3288,18.50472222,-67.09666667,,135,4,,,,,,,,18.50194444,-67.15694444,0,,,,,,,,,,,
,,,,,80,1678451342667,,,,,,,,,,,,,,,,,,,,,,,,,,1881,573.3288,18.50472222,-67.09666667,,135,4,,,,,,,,18.50194444,-67.15694444,0,,,,,,,,,,,
,,,,,81,1678451342700,,,,,,,,,,,,,,,,,,,,,,,,,,1881,573.3288,18.50472222,-67.09666667,,135,4,,,,,,,,18.50194444,-67.15694444,0,,,,,,,,,,,
,,,,,82,1678451342733,,,,,,,,,,,,,,,,,,,,,,,,,,1881,573.3288,18.50472222,-67.09666667,,135,4,,,,,,,,18.50194444,-67.15694444,0,,,,,,,,,,,
,,,,,83,1678451342767,,,,,,,,,,,,,,,,,,,,,,,,,,1881,573.3288,18.50472222,-67.09666667,,135,4,,,,,,,,18.50194444,-67.15694444,0,,,,,,,,,,,
,,,,,84,1678451342800,,,,,,,,,,,,,,,,,,,,,,,,,,1881,573.3288,18.50472222,-67.09666667,,135,4,,,,,,,,18.50194444,-67.15694444,0,,,,,,,,,,,
,,,,,85,1678451342833,,,,,,,,,,,,,,,,,,,,,,,,,,1881,573.3288,18.50472222,-67.09666667,,135,4,,,,,,,,18.50194444,-67.15694444,0,,,,,,,,,,,
,,,,,86,1678451342867,,,,,,,,,,,,,,,,,,,,,,,,,,1882,573.6336,18.50472222,-67.09666667,,135,4,,,,,,,,18.50194444,-67.15694444,0,,,,,,,,,,,
,,,,,87,1678451342900,,,,,,,,,,,,,,,,,,,,,,,,,,1882,573.6336,18.505,-67.09666667,,135,4,,,,,,,,18.50194444,-67.15694444,0,,,,,,,,,,,
,,,,,88,1678451342933,,,,,,,,,,,,,,,,,,,,,,,,,,1882,573.6336,18.505,-67.09666667,,135,4,,,,,,,,18.50194444,-67.15694444,0,,,,,,,,,,,
,,,,,89,1678451342967,,,,,,,,,,,,,,,,,,,,,,,,,,1882,573.6336,18.505,-67.09666667,,135,4,,,,,,,,18.50194444,-67.15694444,0,,,,,,,,,,,
,,,,,90,1678451343000,,,,,,,,,,,,,,,,,,,,,,,,,,1882,573.6336,18.505,-67.09666667,,135,4,,,,,,,,18.50194444,-67.15694444,0,,,,,,,,,,,
,,,,,91,1678451343033,,,,,,,,,,,,,,,,,,,,,,,,,,1882,573.6336,18.505,-67.09666667,,135,4,,,,,,,,18.50194444,-67.15694444,0,,,,,,,,,,,
,,,,,92,1678451343067,,,,,,,,,,,,,,,,,,,,,,,,,,1882,573.6336,18.505,-67.09666667,,135,4,,,,,,,,18.50194444,-67.15694444,0,,,,,,,,,,,
,,,,,93,1678451343100,,,,,,,,,,,,,,,,,,,,,,,,,,1882,573.6336,18.505,-67.09666667,,135,4,,,,,,,,18.50194444,-67.15694444,0,,,,,,,,,,,
,,,,,94,1678451343133,,,,,,,,,,,,,,,,,,,,,,,,,,1883,573.9384,18.505,-67.09666667,,135,4,,,,,,,,18.50194444,-67.15694444,0,,,,,,,,,,,
,,,,,95,1678451343167,,,,,,,,,,,,,,,,,,,,,,,,,,1883,573.9384,18.505,-67.09666667,,135,4,,,,,,,,18.50138889,-67.15694444,0,,,,,,,,,,,
,,,,,96,1678451343200,,,,,,,,,,,,,,,,,,,,,,,,,,1883,573.9384,18.50527778,-67.09666667,,135,4,,,,,,,,18.50138889,-67.15638889,0,,,,,,,,,,,
,,,,,97,1678451343233,,,,,,,,,,,,,,,,,,,,,,,,,,1883,573.9384,18.50527778,-67.09666667,,135,4,,,,,,,,18.50166667,-67.15638889,0,,,,,,,,,,,
,,,,,98,1678451343267,,,,,,,,,,,,,,,,,,,,,,,,,,1883,573.9384,18.50527778,-67.09666667,,135,4,,,,,,,,18.50166667,-67.15638889,0,,,,,,,,,,,
,,,,,99,1678451343300,,,,,,,,,,,,,,,,,,,,,,,,,,1883,573.9384,18.50527778,-67.09666667,,135,4,,,,,,,,18.50166667,-67.15638889,0,,,,,,,,,,,
,,,,,100,1678451343333,,,,,,,,,,,,,,,,,,,,,,,,,,1883,573.9384,18.50527778,-67.09666667,,135,4,,,,,,,,18.50166667,-67.15638889,0,,,,,,,,,,,
,,,,,101,1678451343367,,,,,,,,,,,,,,,,,,,,,,,,,,1883,573.9384,18.50527778,-67.09666667,,135,4,,,,,,,,18.50138889,-67.15611111,0,,,,,,,,,,,
,,,,,102,1678451343400,,,,,,,,,,,,,,,,,,,,,,,,,,1883,573.9384,18.50527778,-67.09666667,,135,4,,,,,,,,18.50138889,-67.15611111,0,,,,,,,,,,,
,,,,,103,1678451343433,,,,,,,,,,,,,,,,,,,,,,,,,,1883,573.9384,18.50527778,-67.09666667,,135,4,,,,,,,,18.50138889,-67.15611111,0,,,,,,,,,,,
,,,,,104,1678451343467,,,,,,,,,,,,,,,,,,,,,,,,,,1883,573.9384,18.50527778,-67.09666667,,135,4,,,,,,,,18.50138889,-67.15611111,0,,,,,,,,,,,
,,,,,105,1678451343500,,,,,,,,,,,,,,,,,,,,,,,,,,1883,573.9384,18.50527778,-67.09666667,,135,4,,,,,,,,18.50138889,-67.15611111,0,,,,,,,,,,,
,,,,,106,1678451343533,,,,,,,,,,,,,,,,,,,,,,,,,,1883,573.9384,18.50527778,-67.09666667,,135,4,,,,,,,,18.50138889,-67.15611111,0,,,,,,,,,,,
,,,,,107,1678451343567,,,,,,,,,,,,,,,,,,,,,,,,,,1884,574.2432,18.50527778,-67.09666667,,135,4,,,,,,,,18.50055556,-67.15555556,0,,,,,,,,,,,
,,,,,108,1678451343600,,,,,,,,,,,,,,,,,,,,,,,,,,1884,574.2432,18.50555556,-67.09666667,,135,4,,,,,,,,18.50055556,-67.15555556,0,,,,,,,,,,,
,,,,,109,1678451343633,,,,,,,,,,,,,,,,,,,,,,,,,,1884,574.2432,18.50555556,-67.09666667,,135,4,,,,,,,,18.50055556,-67.15555556,0,,,,,,,,,,,
,,,,,110,1678451343667,,,,,,,,,,,,,,,,,,,,,,,,,,1884,574.2432,18.50555556,-67.09666667,,135,4,,,,,,,,18.50055556,-67.15555556,0,,,,,,,,,,,
,,,,,111,1678451343700,,,,,,,,,,,,,,,,,,,,,,,,,,1884,574.2432,18.50555556,-67.09666667,,135,4,,,,,,,,18.50055556,-67.15555556,0,,,,,,,,,,,
,,,,,112,1678451343733,,,,,,,,,,,,,,,,,,,,,,,,,,1884,574.2432,18.50555556,-67.09666667,,135,4,,,,,,,,18.50055556,-67.15555556,0,,,,,,,,,,,
,,,,,113,1678451343767,,,,,,,,,,,,,,,,,,,,,,,,,,1884,574.2432,18.50555556,-67.09666667,,135,4,,,,,,,,18.50055556,-67.15555556,0,,,,,,,,,,,
,,,,,114,1678451343800,,,,,,,,,,,,,,,,,,,,,,,,,,1885,574.548,18.50555556,-67.09666667,,135,4,,,,,,,,18.50055556,-67.15527778,0,,,,,,,,,,,
,,,,,115,1678451343833,,,,,,,,,,,,,,,,,,,,,,,,,,1885,574.548,18.50583333,-67.09666667,,135,4,,,,,,,,18.5,-67.15527778,0,,,,,,,,,,,
,,,,,116,1678451343867,,,,,,,,,,,,,,,,,,,,,,,,,,1885,574.548,18.50583333,-67.09666667,,135,4,,,,,,,,18.5,-67.15527778,0,,,,,,,,,,,
,,,,,117,1678451343900,,,,,,,,,,,,,,,,,,,,,,,,,,1885,574.548,18.50583333,-67.09666667,,135,4,,,,,,,,18.5,-67.15527778,0,,,,,,,,,,,
,,,,,118,1678451343933,,,,,,,,,,,,,,,,,,,,,,,,,,1885,574.548,18.50583333,-67.09666667,,135,4,,,,,,,,18.5,-67.15527778,0,,,,,,,,,,,
,,,,,119,1678451343967,,,,,,,,,,,,,,,,,,,,,,,,,,1885,574.548,18.50583333,-67.09666667,,135,4,,,,,,,,18.5,-67.15527778,0,,,,,,,,,,,
,,,,,120,1678451344000,,,,,,,,,,,,,,,,,,,,,,,,,,1885,574.548,18.50583333,-67.09666667,,135,4,,,,,,,,18.5,-67.15527778,0,,,,,,,,,,,
,,,,,121,1678451344033,,,,,,,,,,,,,,,,,,,,,,,,,,1886,574.8528,18.50583333,-67.09666667,,135,4,,,,,,,,18.5,-67.15555556,0,,,,,,,,,,,
,,,,,122,1678451344067,,,,,,,,,,,,,,,,,,,,,,,,,,1886,574.8528,18.50583333,-67.09666667,,135,4,,,,,,,,18.5,-67.15555556,0,,,,,,,,,,,
,,,,,123,1678451344100,,,,,,,,,,,,,,,,,,,,,,,,,,1886,574.8528,18.50583333,-67.09666667,,135,4,,,,,,,,18.5,-67.15555556,0,,,,,,,,,,,
,,,,,124,1678451344133,,,,,,,,,,,,,,,,,,,,,,,,,,1886,574.8528,18.50583333,-67.09666667,,135,4,,,,,,,,18.5,-67.15555556,0,,,,,,,,,,,
,,,,,125,1678451344167,,,,,,,,,,,,,,,,,,,,,,,,,,1886,574.8528,18.50583333,-67.09666667,,135,4,,,,,,,,18.5,-67.15555556,0,,,,,,,,,,,
,,,,,126,1678451344200,,,,,,,,,,,,,,,,,,,,,,,,,,1886,574.8528,18.50583333,-67.09666667,,135,4,,,,,,,,18.5,-67.15555556,0,,,,,,,,,,,
,,,,,127,1678451344233,,,,,,,,,,,,,,,,,,,,,,,,,,1886,574.8528,18.50583333,-67.09666667,,135,4,,,,,,,,18.51638889,-67.15583333,0,,,,,,,,,,,
,,,,,128,1678451344267,,,,,,,,,,,,,,,,,,,,,,,,,,1886,574.8528,18.50611111,-67.09666667,,135,4,,,,,,,,18.49972222,-67.15583333,0,,,,,,,,,,,
,,,,,129,1678451344300,,,,,,,,,,,,,,,,,,,,,,,,,,1886,574.8528,18.50611111,-67.09666667,,135,4,,,,,,,,18.49972222,-67.15583333,0,,,,,,,,,,,
,,,,,130,1678451344333,,,,,,,,,,,,,,,,,,,,,,,,,,1886,574.8528,18.50611111,-67.09666667,,135,4,,,,,,,,18.49972222,-67.15583333,0,,,,,,,,,,,
,,,,,131,1678451344367,,,,,,,,,,,,,,,,,,,,,,,,,,1886,574.8528,18.50611111,-67.09666667,,135,4,,,,,,,,18.49972222,-67.15583333,0,,,,,,,,,,,
,,,,,132,1678451344400,,,,,,,,,,,,,,,,,,,,,,,,,,1886,574.8528,18.50611111,-67.09666667,,135,4,,,,,,,,18.49972222,-67.15583333,0,,,,,,,,,,,
,,,,,133,1678451344433,,,,,,,,,,,,,,,,,,,,,,,,,,1887,575.1576,18.50611111,-67.09666667,,135,4,,,,,,,,18.49972222,-67.15666667,0,,,,,,,,,,,
,,,,,134,1678451344467,,,,,,,,,,,,,,,,,,,,,,,,,,1887,575.1576,18.50611111,-67.09666667,,135,4,,,,,,,,18.49972222,-67.15666667,0,,,,,,,,,,,
,,,,,135,1678451344500,,,,,,,,,,,,,,,,,,,,,,,,,,1887,575.1576,18.50638889,-67.09666667,,135,4,,,,,,,,18.49972222,-67.15666667,0,,,,,,,,,,,
,,,,,136,1678451344533,,,,,,,,,,,,,,,,,,,,,,,,,,1887,575.1576,18.50638889,-67.09666667,,135,4,,,,,,,,18.49972222,-67.15666667,0,,,,,,,,,,,
,,,,,137,1678451344567,,,,,,,,,,,,,,,,,,,,,,,,,,1887,575.1576,18.50638889,-67.09666667,,135,4,,,,,,,,18.49972222,-67.15666667,0,,,,,,,,,,,
,,,,,138,1678451344600,,,,,,,,,,,,,,,,,,,,,,,,,,1887,575.1576,18.50638889,-67.09666667,,135,4,,,,,,,,18.49972222,-67.15666667,0,,,,,,,,,,,
,,,,,139,1678451344633,,,,,,,,,,,,,,,,,,,,,,,,,,1887,575.1576,18.50638889,-67.09666667,,135,4,,,,,,,,18.49972222,-67.15666667,0,,,,,,,,,,,
,,,,,140,1678451344667,,,,,,,,,,,,,,,,,,,,,,,,,,1887,575.1576,18.50638889,-67.09666667,,135,4,,,,,,,,18.49944444,-67.15777778,0,,,,,,,,,,,
,,,,,141,1678451344700,,,,,,,,,,,,,,,,,,,,,,,,,,1887,575.1576,18.50638889,-67.09666667,,135,4,,,,,,,,18.49944444,-67.15777778,0,,,,,,,,,,,
,,,,,142,1678451344733,,,,,,,,,,,,,,,,,,,,,,,,,,1887,575.1576,18.50638889,-67.09666667,,135,4,,,,,,,,18.49944444,-67.15777778,0,,,,,,,,,,,
,,,,,143,1678451344767,,,,,,,,,,,,,,,,,,,,,,,,,,1887,575.1576,18.50638889,-67.09666667,,135,4,,,,,,,,18.49944444,-67.15777778,0,,,,,,,,,,,
,,,,,144,1678451344800,,,,,,,,,,,,,,,,,,,,,,,,,,1887,575.1576,18.50638889,-67.09666667,,135,4,,,,,,,,18.49944444,-67.15777778,0,,,,,,,,,,,
,,,,,145,1678451344833,,,,,,,,,,,,,,,,,,,,,,,,,,1887,575.1576,18.50638889,-67.09666667,,135,4,,,,,,,,18.49944444,-67.15777778,0,,,,,,,,,,,
,,,,,146,1678451344867,,,,,,,,,,,,,,,,,,,,,,,,,,1887,575.1576,18.50638889,-67.09666667,,135,4,,,,,,,,18.49944444,-67.15777778,0,,,,,,,,,,,
,,,,,147,1678451344900,,,,,,,,,,,,,,,,,,,,,,,,,,1887,575.1576,18.50666667,-67.09666667,,135,4,,,,,,,,18.49916667,-67.15833333,0,,,,,,,,,,,
,,,,,148,1678451344933,,,,,,,,,,,,,,,,,,,,,,,,,,1887,575.1576,18.50666667,-67.09666667,,135,4,,,,,,,,18.49916667,-67.15833333,0,,,,,,,,,,,
,,,,,149,1678451344967,,,,,,,,,,,,,,,,,,,,,,,,,,1887,575.1576,18.50666667,-67.09666667,,135,4,,,,,,,,18.49916667,-67.15833333,0,,,,,,,,,,,
,,,,,150,1678451345000,,,,,,,,,,,,,,,,,,,,,,,,,,1887,575.1576,18.50666667,-67.09666667,,135,4,,,,,,,,18.49916667,-67.15833333,0,,,,,,,,,,,
,,,,,151,1678451345033,,,,,,,,,,,,,,,,,,,,,,,,,,1887,575.1576,18.50666667,-67.09666667,,135,4,,,,,,,,18.49916667,-67.15833333,0,,,,,,,,,,,
,,,,,152,1678451345067,,,,,,,,,,,,,,,,,,,,,,,,,,1887,575.1576,18.50666667,-67.09666667,,135,4,,,,,,,,18.49916667,-67.15833333,0,,,,,,,,,,,
,,,,,153,1678451345100,,,,,,,,,,,,,,,,,,,,,,,,,,1888,575.4624,18.50666667,-67.09666667,,135,4,,,,,,,,18.49888889,-67.15833333,0,,,,,,,,,,,
,,,,,154,1678451345133,,,,,,,,,,,,,,,,,,,,,,,,,,1888,575.4624,18.50694444,-67.09666667,,135,4,,,,,,,,18.49888889,-67.15833333,0,,,,,,,,,,,
,,,,,155,1678451345167,,,,,,,,,,,,,,,,,,,,,,,,,,1888,575.4624,18.50694444,-67.09666667,,135,4,,,,,,,,18.49888889,-67.15833333,0,,,,,,,,,,,
,,,,,156,1678451345200,,,,,,,,,,,,,,,,,,,,,,,,,,1888,575.4624,18.50694444,-67.09666667,,135,4,,,,,,,,18.49888889,-67.15833333,0,,,,,,,,,,,
,,,,,157,1678451345233,,,,,,,,,,,,,,,,,,,,,,,,,,1888,575.4624,18.50694444,-67.09666667,,135,4,,,,,,,,18.49888889,-67.15833333,0,,,,,,,,,,,
,,,,,158,1678451345267,,,,,,,,,,,,,,,,,,,,,,,,,,1888,575.4624,18.50694444,-67.09666667,,135,4,,,,,,,,18.49888889,-67.15833333,0,,,,,,,,,,,
,,,,,159,1678451345300,,,,,,,,,,,,,,,,,,,,,,,,,,1888,575.4624,18.50694444,-67.09666667,,135,4,,,,,,,,18.49888889,-67.15805556,0,,,,,,,,,,,
,,,,,160,1678451345333,,,,,,,,,,,,,,,,,,,,,,,,,,1888,575.4624,18.50694444,-67.09666667,,135,4,,,,,,,,18.49861111,-67.15805556,0,,,,,,,,,,,
,,,,,161,1678451345367,,,,,,,,,,,,,,,,,,,,,,,,,,1888,575.4624,18.50694444,-67.09666667,,135,4,,,,,,,,18.49861111,-67.15805556,0,,,,,,,,,,,
,,,,,162,1678451345400,,,,,,,,,,,,,,,,,,,,,,,,,,1888,575.4624,18.50694444,-67.09666667,,135,4,,,,,,,,18.49861111,-67.15805556,0,,,,,,,,,,,
,,,,,163,1678451345433,,,,,,,,,,,,,,,,,,,,,,,,,,1888,575.4624,18.50694444,-67.09666667,,135,4,,,,,,,,18.49861111,-67.15805556,0,,,,,,,,,,,
,,,,,164,1678451345467,,,,,,,,,,,,,,,,,,,,,,,,,,1888,575.4624,18.50694444,-67.09666667,,135,4,,,,,,,,18.49861111,-67.15805556,0,,,,,,,,,,,
,,,,,165,1678451345500,,,,,,,,,,,,,,,,,,,,,,,,,,1888,575.4624,18.50694444,-67.09666667,,135,4,,,,,,,,18.49861111,-67.15805556,0,,,,,,,,,,,
,,,,,166,1678451345533,,,,,,,,,,,,,,,,,,,,,,,,,,1889,575.7672,18.50694444,-67.09666667,,135,4,,,,,,,,18.49805556,-67.15666667,0,,,,,,,,,,,
,,,,,167,1678451345567,,,,,,,,,,,,,,,,,,,,,,,,,,1889,575.7672,18.50722222,-67.09666667,,135,4,,,,,,,,18.49805556,-67.15666667,0,,,,,,,,,,,
,,,,,168,1678451345600,,,,,,,,,,,,,,,,,,,,,,,,,,1889,575.7672,18.50722222,-67.09666667,,135,4,,,,,,,,18.49805556,-67.15666667,0,,,,,,,,,,,
,,,,,169,1678451345633,,,,,,,,,,,,,,,,,,,,,,,,,,1889,575.7672,18.50722222,-67.09666667,,135,4,,,,,,,,18.49805556,-67.15666667,0,,,,,,,,,,,
,,,,,170,1678451345667,,,,,,,,,,,,,,,,,,,,,,,,,,1889,575.7672,18.50722222,-67.09666667,,135,4,,,,,,,,18.49805556,-67.15666667,0,,,,,,,,,,,
,,,,,171,1678451345700,,,,,,,,,,,,,,,,,,,,,,,,,,1889,575.7672,18.50722222,-67.09666667,,135,4,,,,,,,,18.49805556,-67.15666667,0,,,,,,,,,,,
,,,,,172,1678451345733,,,,,,,,,,,,,,,,,,,,,,,,,,1889,575.7672,18.50722222,-67.09666667,,135,4,,,,,,,,18.49777778,-67.15555556,0,,,,,,,,,,,
,,,,,173,1678451345767,,,,,,,,,,,,,,,,,,,,,,,,,,1889,575.7672,18.5075,-67.09666667,,135,4,,,,,,,,18.49777778,-67.15555556,0,,,,,,,,,,,
,,,,,174,1678451345800,,,,,,,,,,,,,,,,,,,,,,,,,,1889,575.7672,18.5075,-67.09666667,,135,4,,,,,,,,18.49777778,-67.15555556,0,,,,,,,,,,,
,,,,,175,1678451345833,,,,,,,,,,,,,,,,,,,,,,,,,,1889,575.7672,18.5075,-67.09666667,,135,4,,,,,,,,18.49777778,-67.15555556,0,,,,,,,,,,,
,,,,,176,1678451345867,,,,,,,,,,,,,,,,,,,,,,,,,,1889,575.7672,18.5075,-67.09666667,,135,4,,,,,,,,18.49777778,-67.15555556,0,,,,,,,,,,,
,,,,,177,1678451345900,,,,,,,,,,,,,,,,,,,,,,,,,,1889,575.7672,18.5075,-67.09666667,,135,4,,,,,,,,18.49777778,-67.15555556,0,,,,,,,,,,,
,,,,,178,1678451345933,,,,,,,,,,,,,,,,,,,,,,,,,,1890,576.072,18.5075,-67.09666667,,135,4,,,,,,,,18.49777778,-67.15472222,0,,,,,,,,,,,
,,,,,179,1678451345967,,,,,,,,,,,,,,,,,,,,,,,,,,1890,576.072,18.5075,-67.09666667,,135,4,,,,,,,,18.49777778,-67.15472222,0,,,,,,,,,,,
,,,,,180,1678451346000,,,,,,,,,,,,,,,,,,,,,,,,,,1890,576.072,18.5075,-67.09666667,,135,4,,,,,,,,18.49777778,-67.15472222,0,,,,,,,,,,,
,,,,,181,1678451346033,,,,,,,,,,,,,,,,,,,,,,,,,,1890,576.072,18.5075,-67.09666667,,135,4,,,,,,,,18.49777778,-67.15472222,0,,,,,,,,,,,
,,,,,182,1678451346067,,,,,,,,,,,,,,,,,,,,,,,,,,1890,576.072,18.5075,-67.09666667,,135,4,,,,,,,,18.49777778,-67.15472222,0,,,,,,,,,,,
,,,,,183,1678451346100,,,,,,,,,,,,,,,,,,,,,,,,,,1890,576.072,18.5075,-67.09666667,,135,4,,,,,,,,18.49777778,-67.15472222,0,,,,,,,,,,,
,,,,,184,1678451346133,,,,,,,,,,,,,,,,,,,,,,,,,,1890,576.072,18.5075,-67.09666667,,135,4,,,,,,,,18.49777778,-67.15472222,0,,,,,,,,,,,
,,,,,185,1678451346167,,,,,,,,,,,,,,,,,,,,,,,,,,1891,576.3768,18.5075,-67.09666667,,135,4,,,,,,,,18.4975,-67.15444444,0,,,,,,,,,,,
,,,,,186,1678451346200,,,,,,,,,,,,,,,,,,,,,,,,,,1891,576.3768,18.50777778,-67.09694444,,135,4,,,,,,,,18.4975,-67.15444444,0,,,,,,,,,,,
,,,,,187,1678451346233,,,,,,,,,,,,,,,,,,,,,,,,,,1891,576.3768,18.50777778,-67.09694444,,135,4,,,,,,,,18.4975,-67.15444444,0,,,,,,,,,,,
,,,,,188,1678451346267,,,,,,,,,,,,,,,,,,,,,,,,,,1891,576.3768,18.50777778,-67.09694444,,135,4,,,,,,,,18.4975,-67.15444444,0,,,,,,,,,,,
,,,,,189,1678451346300,,,,,,,,,,,,,,,,,,,,,,,,,,1891,576.3768,18.50777778,-67.09694444,,135,4,,,,,,,,18.4975,-67.15444444,0,,,,,,,,,,,
,,,,,190,1678451346333,,,,,,,,,,,,,,,,,,,,,,,,,,1891,576.3768,18.50777778,-67.09694444,,135,4,,,,,,,,18.4975,-67.15444444,0,,,,,,,,,,,
,,,,,191,1678451346367,,,,,,,,,,,,,,,,,,,,,,,,,,1892,576.6816,18.50777778,-67.09694444,,135,4,,,,,,,,18.4975,-67.15444444,0,,,,,,,,,,,
,,,,,192,1678451346400,,,,,,,,,,,,,,,,,,,,,,,,,,1892,576.6816,18.50777778,-67.09694444,,135,4,,,,,,,,18.4975,-67.15444444,0,,,,,,,,,,,
,,,,,193,1678451346433,,,,,,,,,,,,,,,,,,,,,,,,,,1892,576.6816,18.50805556,-67.09694444,,135,4,,,,,,,,18.4975,-67.15444444,0,,,,,,,,,,,
,,,,,194,1678451346467,,,,,,,,,,,,,,,,,,,,,,,,,,1892,576.6816,18.50805556,-67.09694444,,135,4,,,,,,,,18.4975,-67.15444444,0,,,,,,,,,,,
,,,,,195,1678451346500,,,,,,,,,,,,,,,,,,,,,,,,,,1892,576.6816,18.50805556,-67.09694444,,135,4,,,,,,,,18.4975,-67.15444444,0,,,,,,,,,,,
,,,,,196,1678451346533,,,,,,,,,,,,,,,,,,,,,,,,,,1892,576.6816,18.50805556,-67.09694444,,135,4,,,,,,,,18.4975,-67.15444444,0,,,,,,,,,,,
,,,,,197,1678451346567,,,,,,,,,,,,,,,,,,,,,,,,,,1892,576.6816,18.50805556,-67.09694444,,135,4,,,,,,,,18.4975,-67.15444444,0,,,,,,,,,,,
,,,,,198,1678451346600,,,,,,,,,,,,,,,,,,,,,,,,,,1892,576.6816,18.50805556,-67.09694444,,135,4,,,,,,,,18.4975,-67.15444444,0,,,,,,,,,,,
,,,,,199,1678451346633,,,,,,,,,,,,,,,,,,,,,,,,,,1892,576.6816,18.50805556,-67.09694444,,135,4,,,,,,,,18.4975,-67.15444444,0,,,,,,,,,,,
,,,,,200,1678451346667,,,,,,,,,,,,,,,,,,,,,,,,,,1892,576.6816,18.50805556,-67.09694444,,135,4,,,,,,,,18.4975,-67.15444444,0,,,,,,,,,,,
,,,,,201,1678451346700,,,,,,,,,,,,,,,,,,,,,,,,,,1892,576.6816,18.50805556,-67.09694444,,135,4,,,,,,,,18.4975,-67.15444444,0,,,,,,,,,,,
,,,,,202,1678451346733,,,,,,,,,,,,,,,,,,,,,,,,,,1892,576.6816,18.50805556,-67.09694444,,135,4,,,,,,,,18.4975,-67.15444444,0,,,,,,,,,,,
,,,,,203,1678451346767,,,,,,,,,,,,,,,,,,,,,,,,,,1892,576.6816,18.50805556,-67.09694444,,135,4,,,,,,,,18.4975,-67.15444444,0,,,,,,,,,,,
,,,,,204,1678451346800,,,,,,,,,,,,,,,,,,,,,,,,,,1892,576.6816,18.50805556,-67.09694444,,135,4,,,,,,,,18.49722222,-67.15444444,0,,,,,,,,,,,
,,,,,205,1678451346833,,,,,,,,,,,,,,,,,,,,,,,,,,1892,576.6816,18.50833333,-67.09694444,,135,4,,,,,,,,18.49722222,-67.15444444,0,,,,,,,,,,,
,,,,,206,1678451346867,,,,,,,,,,,,,,,,,,,,,,,,,,1892,576.6816,18.50833333,-67.09694444,,135,4,,,,,,,,18.49722222,-67.15444444,0,,,,,,,,,,,
,,,,,207,1678451346900,,,,,,,,,,,,,,,,,,,,,,,,,,1892,576.6816,18.50833333,-67.09694444,,135,4,,,,,,,,18.49722222,-67.15444444,0,,,,,,,,,,,
,,,,,208,1678451346933,,,,,,,,,,,,,,,,,,,,,,,,,,1892,576.6816,18.50833333,-67.09694444,,135,4,,,,,,,,18.49722222,-67.15444444,0,,,,,,,,,,,
,,,,,209,1678451346967,,,,,,,,,,,,,,,,,,,,,,,,,,1892,576.6816,18.50833333,-67.09694444,,135,4,,,,,,,,18.49722222,-67.15444444,0,,,,,,,,,,,
,,,,,210,1678451347000,,,,,,,,,,,,,,,,,,,,,,,,,,1892,576.6816,18.50833333,-67.09694444,,135,4,,,,,,,,18.49722222,-67.15444444,0,,,,,,,,,,,
,,,,,211,1678451347033,,,,,,,,,,,,,,,,,,,,,,,,,,1893,576.9864,18.50833333,-67.09694444,,135,4,,,,,,,,18.49722222,-67.15444444,0,,,,,,,,,,,
,,,,,212,1678451347067,,,,,,,,,,,,,,,,,,,,,,,,,,1893,576.9864,18.50861111,-67.09694444,,135,4,,,,,,,,18.49722222,-67.15444444,0,,,,,,,,,,,
,,,,,213,1678451347100,,,,,,,,,,,,,,,,,,,,,,,,,,1893,576.9864,18.50861111,-67.09694444,,135,4,,,,,,,,18.49722222,-67.15444444,0,,,,,,,,,,,
,,,,,214,1678451347133,,,,,,,,,,,,,,,,,,,,,,,,,,1893,576.9864,18.50861111,-67.09694444,,135,4,,,,,,,,18.49722222,-67.15444444,0,,,,,,,,,,,
,,,,,215,1678451347167,,,,,,,,,,,,,,,,,,,,,,,,,,1893,576.9864,18.50861111,-67.09694444,,135,4,,,,,,,,18.49722222,-67.15444444,0,,,,,,,,,,,
,,,,,216,1678451347200,,,,,,,,,,,,,,,,,,,,,,,,,,1893,576.9864,18.50861111,-67.09694444,,135,4,,,,,,,,18.49722222,-67.15444444,0,,,,,,,,,,,
,,,,,217,1678451347233,,,,,,,,,,,,,,,,,,,,,,,,,,1893,576.9864,18.50861111,-67.09694444,,135,4,,,,,,,,18.49694444,-67.15444444,0,,,,,,,,,,,
,,,,,218,1678451347267,,,,,,,,,,,,,,,,,,,,,,,,,,1894,577.2912,18.50861111,-67.09694444,,135,4,,,,,,,,18.49694444,-67.15444444,0,,,,,,,,,,,
,,,,,219,1678451347300,,,,,,,,,,,,,,,,,,,,,,,,,,1894,577.2912,18.50861111,-67.09694444,,135,4,,,,,,,,18.49694444,-67.15444444,0,,,,,,,,,,,
,,,,,220,1678451347333,,,,,,,,,,,,,,,,,,,,,,,,,,1894,577.2912,18.50861111,-67.09694444,,135,4,,,,,,,,18.49694444,-67.15444444,0,,,,,,,,,,,
,,,,,221,1678451347367,,,,,,,,,,,,,,,,,,,,,,,,,,1894,577.2912,18.50861111,-67.09694444,,135,4,,,,,,,,18.49694444,-67.15444444,0,,,,,,,,,,,
,,,,,222,1678451347400,,,,,,,,,,,,,,,,,,,,,,,,,,1894,577.2912,18.50861111,-67.09694444,,135,4,,,,,,,,18.49694444,-67.15444444,0,,,,,,,,,,,
,,,,,223,1678451347433,,,,,,,,,,,,,,,,,,,,,,,,,,1894,577.2912,18.50861111,-67.09694444,,135,4,,,,,,,,18.49666667,-67.15472222,0,,,,,,,,,,,
,,,,,224,1678451347467,,,,,,,,,,,,,,,,,,,,,,,,,,1894,577.2912,18.50888889,-67.09694444,,135,4,,,,,,,,18.49666667,-67.15472222,3,,,,,,,,,,,
,,,,,225,1678451347500,,,,,,,,,,,,,,,,,,,,,,,,,,1894,577.2912,18.50888889,-67.09694444,,135,4,,,,,,,,18.49666667,-67.15472222,3,,,,,,,,,,,
,,,,,226,1678451347533,,,,,,,,,,,,,,,,,,,,,,,,,,1894,577.2912,18.50888889,-67.09694444,,135,4,,,,,,,,18.49666667,-67.15472222,3,,,,,,,,,,,
,,,,,227,1678451347567,,,,,,,,,,,,,,,,,,,,,,,,,,1894,577.2912,18.50888889,-67.09694444,,135,4,,,,,,,,18.49666667,-67.15472222,3,,,,,,,,,,,
,,,,,228,1678451347600,,,,,,,,,,,,,,,,,,,,,,,,,,1894,577.2912,18.50888889,-67.09694444,,135,4,,,,,,,,18.49666667,-67.15472222,3,,,,,,,,,,,
,,,,,229,1678451347633,,,,,,,,,,,,,,,,,,,,,,,,,,1894,577.2912,18.50888889,-67.09694444,,135,4,,,,,,,,18.49666667,-67.15472222,3,,,,,,,,,,,
,,,,,230,1678451347667,,,,,,,,,,,,,,,,,,,,,,,,,,1895,577.596,18.50888889,-67.09694444,,135,4,,,,,,,,18.49638889,-67.15472222,3,,,,,,,,,,,
,,,,,231,1678451347700,,,,,,,,,,,,,,,,,,,,,,,,,,1895,577.596,18.50916667,-67.09722222,,135,4,,,,,,,,18.49638889,-67.15472222,3,,,,,,,,,,,
,,,,,232,1678451347733,,,,,,,,,,,,,,,,,,,,,,,,,,1895,577.596,18.50916667,-67.09722222,,135,4,,,,,,,,18.49638889,-67.15472222,3,,,,,,,,,,,
,,,,,233,1678451347767,,,,,,,,,,,,,,,,,,,,,,,,,,1895,577.596,18.50916667,-67.09722222,,135,4,,,,,,,,18.49638889,-67.15472222,3,,,,,,,,,,,
,,,,,234,1678451347800,,,,,,,,,,,,,,,,,,,,,,,,,,1895,577.596,18.50916667,-67.09722222,,135,4,,,,,,,,18.49638889,-67.15472222,3,,,,,,,,,,,
,,,,,235,1678451347833,,,,,,,,,,,,,,,,,,,,,,,,,,1895,577.596,18.50916667,-67.09722222,,135,4,,,,,,,,18.49638889,-67.15472222,3,,,,,,,,,,,
,,,,,236,1678451347867,,,,,,,,,,,,,,,,,,,,,,,,,,1895,577.596,18.50916667,-67.09722222,,135,4,,,,,,,,18.49638889,-67.15472222,3,,,,,,,,,,,
,,,,,237,1678451347900,,,,,,,,,,,,,,,,,,,,,,,,,,1895,577.596,18.50916667,-67.09722222,,135,4,,,,,,,,18.49638889,-67.15472222,3,,,,,,,,,,,
,,,,,238,1678451347933,,,,,,,,,,,,,,,,,,,,,,,,,,1895,577.596,18.50916667,-67.09722222,,135,4,,,,,,,,18.49638889,-67.15472222,3,,,,,,,,,,,
,,,,,239,1678451347967,,,,,,,,,,,,,,,,,,,,,,,,,,1895,577.596,18.50916667,-67.09722222,,135,4,,,,,,,,18.49638889,-67.15472222,3,,,,,,,,,,,
,,,,,240,1678451348000,,,,,,,,,,,,,,,,,,,,,,,,,,1895,577.596,18.50916667,-67.09722222,,135,4,,,,,,,,18.49638889,-67.15472222,3,,,,,,,,,,,
,,,,,241,1678451348033,,,,,,,,,,,,,,,,,,,,,,,,,,1895,577.596,18.50916667,-67.09722222,,135,4,,,,,,,,18.49638889,-67.15472222,3,,,,,,,,,,,
,,,,,242,1678451348067,,,,,,,,,,,,,,,,,,,,,,,,,,1895,577.596,18.50916667,-67.09722222,,135,4,,,,,,,,18.49638889,-67.15472222,3,,,,,,,,,,,
,,,,,243,1678451348100,,,,,,,,,,,,,,,,,,,,,,,,,,1896,577.9008,18.50916667,-67.09722222,,135,4,,,,,,,,18.49611111,-67.15472222,3,,,,,,,,,,,
,,,,,244,1678451348133,,,,,,,,,,,,,,,,,,,,,,,,,,1896,577.9008,18.50944444,-67.09722222,,135,4,,,,,,,,18.49611111,-67.15472222,3,,,,,,,,,,,
,,,,,245,1678451348167,,,,,,,,,,,,,,,,,,,,,,,,,,1896,577.9008,18.50944444,-67.09722222,,135,4,,,,,,,,18.49611111,-67.15472222,3,,,,,,,,,,,
,,,,,246,1678451348200,,,,,,,,,,,,,,,,,,,,,,,,,,1896,577.9008,18.50944444,-67.09722222,,135,4,,,,,,,,18.49611111,-67.15472222,3,,,,,,,,,,,
,,,,,247,1678451348233,,,,,,,,,,,,,,,,,,,,,,,,,,1896,577.9008,18.50944444,-67.09722222,,135,4,,,,,,,,18.49611111,-67.15472222,3,,,,,,,,,,,
,,,,,248,1678451348267,,,,,,,,,,,,,,,,,,,,,,,,,,1896,577.9008,18.50944444,-67.09722222,,135,4,,,,,,,,18.49611111,-67.15472222,3,,,,,,,,,,,
,,,,,249,1678451348300,,,,,,,,,,,,,,,,,,,,,,,,,,1896,577.9008,18.50944444,-67.09722222,,135,4,,,,,,,,18.49611111,-67.15472222,3,,,,,,,,,,,
,,,,,250,1678451348333,,,,,,,,,,,,,,,,,,,,,,,,,,1896,577.9008,18.50944444,-67.09722222,,135,4,,,,,,,,18.49611111,-67.15472222,3,,,,,,,,,,,
,,,,,251,1678451348367,,,,,,,,,,,,,,,,,,,,,,,,,,1896,577.9008,18.50944444,-67.09722222,,135,4,,,,,,,,18.49611111,-67.15472222,3,,,,,,,,,,,
,,,,,252,1678451348400,,,,,,,,,,,,,,,,,,,,,,,,,,1896,577.9008,18.50944444,-67.09722222,,135,4,,,,,,,,18.49611111,-67.15472222,3,,,,,,,,,,,
,,,,,253,1678451348433,,,,,,,,,,,,,,,,,,,,,,,,,,1896,577.9008,18.50944444,-67.09722222,,135,4,,,,,,,,18.49611111,-67.15472222,3,,,,,,,,,,,
,,,,,254,1678451348467,,,,,,,,,,,,,,,,,,,,,,,,,,1896,577.9008,18.50944444,-67.09722222,,135,4,,,,,,,,18.49611111,-67.15472222,3,,,,,,,,,,,
,,,,,255,1678451348500,,,,,,,,,,,,,,,,,,,,,,,,,,1896,577.9008,18.50944444,-67.09722222,,135,4,,,,,,,,18.49611111,-67.15472222,3,,,,,,,,,,,
,,,,,256,1678451348533,,,,,,,,,,,,,,,,,,,,,,,,,,1897,578.2056,18.50972222,-67.09722222,,135,4,,,,,,,,18.49611111,-67.155,3,,,,,,,,,,,
,,,,,257,1678451348567,,,,,,,,,,,,,,,,,,,,,,,,,,1897,578.2056,18.50972222,-67.09722222,,135,4,,,,,,,,18.49611111,-67.155,3,,,,,,,,,,,
,,,,,258,1678451348600,,,,,,,,,,,,,,,,,,,,,,,,,,1897,578.2056,18.50972222,-67.09722222,,135,4,,,,,,,,18.49611111,-67.155,3,,,,,,,,,,,
,,,,,259,1678451348633,,,,,,,,,,,,,,,,,,,,,,,,,,1897,578.2056,18.50972222,-67.09722222,,135,4,,,,,,,,18.49611111,-67.155,3,,,,,,,,,,,
,,,,,260,1678451348667,,,,,,,,,,,,,,,,,,,,,,,,,,1897,578.2056,18.50972222,-67.09722222,,135,4,,,,,,,,18.49611111,-67.155,3,,,,,,,,,,,
,,,,,261,1678451348700,,,,,,,,,,,,,,,,,,,,,,,,,,1897,578.2056,18.50972222,-67.09722222,,135,4,,,,,,,,18.49611111,-67.155,3,,,,,,,,,,,
,,,,,262,1678451348733,,,,,,,,,,,,,,,,,,,,,,,,,,1897,578.2056,18.50972222,-67.09722222,,135,4,,,,,,,,18.49555556,-67.155,3,,,,,,,,,,,
,,,,,263,1678451348767,,,,,,,,,,,,,,,,,,,,,,,,,,1897,578.2056,18.51,-67.0975,,135,4,,,,,,,,18.49555556,-67.155,3,,,,,,,,,,,
,,,,,264,1678451348800,,,,,,,,,,,,,,,,,,,,,,,,,,1897,578.2056,18.51,-67.0975,,135,4,,,,,,,,18.49555556,-67.155,3,,,,,,,,,,,
,,,,,265,1678451348833,,,,,,,,,,,,,,,,,,,,,,,,,,1897,578.2056,18.51,-67.0975,,135,4,,,,,,,,18.49555556,-67.155,3,,,,,,,,,,,
,,,,,266,1678451348867,,,,,,,,,,,,,,,,,,,,,,,,,,1897,578.2056,18.51,-67.0975,,135,4,,,,,,,,18.49555556,-67.155,3,,,,,,,,,,,
,,,,,267,1678451348900,,,,,,,,,,,,,,,,,,,,,,,,,,1897,578.2056,18.51,-67.0975,,135,4,,,,,,,,18.49555556,-67.155,3,,,,,,,,,,,
,,,,,268,1678451348933,,,,,,,,,,,,,,,,,,,,,,,,,,1897,578.2056,18.51,-67.0975,,135,4,,,,,,,,18.495,-67.155,3,,,,,,,,,,,
,,,,,269,1678451348967,,,,,,,,,,,,,,,,,,,,,,,,,,1898,578.5104,18.51,-67.0975,,135,4,,,,,,,,18.495,-67.155,3,,,,,,,,,,,
,,,,,270,1678451349000,,,,,,,,,,,,,,,,,,,,,,,,,,1898,578.5104,18.51,-67.0975,,135,4,,,,,,,,18.495,-67.155,3,,,,,,,,,,,
,,,,,271,1678451349033,,,,,,,,,,,,,,,,,,,,,,,,,,1898,578.5104,18.51,-67.0975,,135,4,,,,,,,,18.495,-67.155,3,,,,,,,,,,,
,,,,,272,1678451349067,,,,,,,,,,,,,,,,,,,,,,,,,,1898,578.5104,18.51,-67.0975,,135,4,,,,,,,,18.495,-67.155,3,,,,,,,,,,,
,,,,,273,1678451349100,,,,,,,,,,,,,,,,,,,,,,,,,,1898,578.5104,18.51,-67.0975,,135,4,,,,,,,,18.495,-67.155,3,,,,,,,,,,,
,,,,,274,1678451349133,,,,,,,,,,,,,,,,,,,,,,,,,,1898,578.5104,18.51,-67.0975,,135,4,,,,,,,,18.495,-67.155,3,,,,,,,,,,,
,,,,,275,1678451349167,,,,,,,,,,,,,,,,,,,,,,,,,,1899,578.8152,18.51,-67.0975,,135,4,,,,,,,,18.49416667,-67.15611111,3,,,,,,,,,,,
,,,,,276,1678451349200,,,,,,,,,,,,,,,,,,,,,,,,,,1899,578.8152,18.51027778,-67.0975,,135,4,,,,,,,,18.49416667,-67.15611111,3,,,,,,,,,,,
,,,,,277,1678451349233,,,,,,,,,,,,,,,,,,,,,,,,,,1899,578.8152,18.51027778,-67.0975,,135,4,,,,,,,,18.49416667,-67.15611111,3,,,,,,,,,,,
,,,,,278,1678451349267,,,,,,,,,,,,,,,,,,,,,,,,,,1899,578.8152,18.51027778,-67.0975,,135,4,,,,,,,,18.49416667,-67.15611111,3,,,,,,,,,,,
,,,,,279,1678451349300,,,,,,,,,,,,,,,,,,,,,,,,,,1899,578.8152,18.51027778,-67.0975,,135,4,,,,,,,,18.49416667,-67.15611111,3,,,,,,,,,,,
,,,,,280,1678451349333,,,,,,,,,,,,,,,,,,,,,,,,,,1899,578.8152,18.51027778,-67.0975,,135,4,,,,,,,,18.49416667,-67.15611111,3,,,,,,,,,,,
,,,,,281,1678451349367,,,,,,,,,,,,,,,,,,,,,,,,,,1899,578.8152,18.51027778,-67.0975,,135,4,,,,,,,,18.49416667,-67.15611111,3,,,,,,,,,,,
,,,,,282,1678451349400,,,,,,,,,,,,,,,,,,,,,,,,,,1899,578.8152,18.51027778,-67.0975,,135,4,,,,,,,,18.49361111,-67.15638889,3,,,,,,,,,,,
,,,,,283,1678451349433,,,,,,,,,,,,,,,,,,,,,,,,,,1899,578.8152,18.51055556,-67.0975,,135,4,,,,,,,,18.49361111,-67.15638889,3,,,,,,,,,,,
,,,,,284,1678451349467,,,,,,,,,,,,,,,,,,,,,,,,,,1899,578.8152,18.51055556,-67.0975,,135,4,,,,,,,,18.49361111,-67.15638889,3,,,,,,,,,,,
,,,,,285,1678451349500,,,,,,,,,,,,,,,,,,,,,,,,,,1899,578.8152,18.51055556,-67.0975,,135,4,,,,,,,,18.49361111,-67.15638889,3,,,,,,,,,,,
,,,,,286,1678451349533,,,,,,,,,,,,,,,,,,,,,,,,,,1899,578.8152,18.51055556,-67.0975,,135,4,,,,,,,,18.49361111,-67.15638889,3,,,,,,,,,,,
,,,,,287,1678451349567,,,,,,,,,,,,,,,,,,,,,,,,,,1899,578.8152,18.51055556,-67.0975,,135,4,,,,,,,,18.49361111,-67.15638889,3,,,,,,,,,,,
,,,,,288,1678451349600,,,,,,,,,,,,,,,,,,,,,,,,,,1900,579.12,18.51055556,-67.0975,,135,4,,,,,,,,18.49361111,-67.15638889,3,,,,,,,,,,,
,,,,,289,1678451349633,,,,,,,,,,,,,,,,,,,,,,,,,,1900,579.12,18.51055556,-67.09777778,,135,4,,,,,,,,18.49361111,-67.15638889,3,,,,,,,,,,,
,,,,,290,1678451349667,,,,,,,,,,,,,,,,,,,,,,,,,,1900,579.12,18.51055556,-67.09777778,,135,4,,,,,,,,18.49361111,-67.15638889,3,,,,,,,,,,,
,,,,,291,1678451349700,,,,,,,,,,,,,,,,,,,,,,,,,,1900,579.12,18.51055556,-67.09777778,,135,4,,,,,,,,18.49361111,-67.15638889,3,,,,,,,,,,,
,,,,,292,1678451349733,,,,,,,,,,,,,,,,,,,,,,,,,,1900,579.12,18.51055556,-67.09777778,,135,4,,,,,,,,18.49361111,-67.15638889,3,,,,,,,,,,,
,,,,,293,1678451349767,,,,,,,,,,,,,,,,,,,,,,,,,,1900,579.12,18.51055556,-67.09777778,,135,4,,,,,,,,18.49361111,-67.15638889,3,,,,,,,,,,,
,,,,,294,1678451349800,,,,,,,,,,,,,,,,,,,,,,,,,,1900,579.12,18.51055556,-67.09777778,,135,4,,,,,,,,18.49361111,-67.15638889,3,,,,,,,,,,,
,,,,,295,1678451349833,,,,,,,,,,,,,,,,,,,,,,,,,,1900,579.12,18.51055556,-67.09777778,,135,4,,,,,,,,18.49361111,-67.15638889,3,,,,,,,,,,,
,,,,,296,1678451349867,,,,,,,,,,,,,,,,,,,,,,,,,,1900,579.12,18.51083333,-67.09777778,,135,4,,,,,,,,18.49361111,-67.15638889,3,,,,,,,,,,,
,,,,,297,1678451349900,,,,,,,,,,,,,,,,,,,,,,,,,,1900,579.12,18.51083333,-67.09777778,,135,4,,,,,,,,18.49361111,-67.15638889,3,,,,,,,,,,,
,,,,,298,1678451349933,,,,,,,,,,,,,,,,,,,,,,,,,,1900,579.12,18.51083333,-67.09777778,,135,4,,,,,,,,18.49361111,-67.15638889,3,,,,,,,,,,,
,,,,,299,1678451349967,,,,,,,,,,,,,,,,,,,,,,,,,,1900,579.12,18.51083333,-67.09777778,,135,4,,,,,,,,18.49361111,-67.15638889,3,,,,,,,,,,,
,,,,,300,1678451350000,,,,,,,,,,,,,,,,,,,,,,,,,,1900,579.12,18.51083333,-67.09777778,,135,4,,,,,,,,18.49361111,-67.15638889,3,,,,,,,,,,,
,,,,,301,1678451350033,,,,,,,,,,,,,,,,,,,,,,,,,,1899,578.8152,18.51111111,-67.09777778,,135,4,,,,,,,,18.49388889,-67.15555556,3,,,,,,,,,,,
,,,,,302,1678451350067,,,,,,,,,,,,,,,,,,,,,,,,,,1900,579.12,18.51111111,-67.09777778,,135,4,,,,,,,,18.49388889,-67.15555556,3,,,,,,,,,,,
,,,,,303,1678451350100,,,,,,,,,,,,,,,,,,,,,,,,,,1900,579.12,18.51111111,-67.09777778,,135,4,,,,,,,,18.49388889,-67.15555556,3,,,,,,,,,,,
,,,,,304,1678451350133,,,,,,,,,,,,,,,,,,,,,,,,,,1900,579.12,18.51111111,-67.09777778,,135,4,,,,,,,,18.49388889,-67.15555556,3,,,,,,,,,,,
,,,,,305,1678451350167,,,,,,,,,,,,,,,,,,,,,,,,,,1900,579.12,18.51111111,-67.09777778,,135,4,,,,,,,,18.49388889,-67.15555556,3,,,,,,,,,,,
,,,,,306,1678451350200,,,,,,,,,,,,,,,,,,,,,,,,,,1900,579.12,18.51111111,-67.09777778,,135,4,,,,,,,,18.49388889,-67.15555556,3,,,,,,,,,,,
,,,,,307,1678451350233,,,,,,,,,,,,,,,,,,,,,,,,,,1901,579.4248,18.51111111,-67.09777778,,135,4,,,,,,,,18.49444444,-67.15388889,3,,,,,,,,,,,
,,,,,308,1678451350267,,,,,,,,,,,,,,,,,,,,,,,,,,1901,579.4248,18.51111111,-67.09777778,,135,4,,,,,,,,18.49444444,-67.15388889,3,,,,,,,,,,,
,,,,,309,1678451350300,,,,,,,,,,,,,,,,,,,,,,,,,,1901,579.4248,18.51111111,-67.09777778,,135,4,,,,,,,,18.49444444,-67.15388889,3,,,,,,,,,,,
,,,,,310,1678451350333,,,,,,,,,,,,,,,,,,,,,,,,,,1901,579.4248,18.51111111,-67.09777778,,135,4,,,,,,,,18.49444444,-67.15388889,3,,,,,,,,,,,
,,,,,311,1678451350367,,,,,,,,,,,,,,,,,,,,,,,,,,1901,579.4248,18.51111111,-67.09777778,,135,4,,,,,,,,18.49444444,-67.15388889,3,,,,,,,,,,,
,,,,,312,1678451350400,,,,,,,,,,,,,,,,,,,,,,,,,,1902,579.7296,18.51111111,-67.09777778,,135,4,,,,,,,,18.49444444,-67.15388889,3,,,,,,,,,,,
,,,,,313,1678451350433,,,,,,,,,,,,,,,,,,,,,,,,,,1902,579.7296,18.51111111,-67.09777778,,135,4,,,,,,,,18.49444444,-67.1525,3,,,,,,,,,,,
,,,,,314,1678451350467,,,,,,,,,,,,,,,,,,,,,,,,,,1902,579.7296,18.51138889,-67.09777778,,135,4,,,,,,,,18.49472222,-67.1525,3,,,,,,,,,,,
,,,,,315,1678451350500,,,,,,,,,,,,,,,,,,,,,,,,,,1902,579.7296,18.51138889,-67.09805556,,135,4,,,,,,,,18.49472222,-67.1525,3,,,,,,,,,,,
,,,,,316,1678451350533,,,,,,,,,,,,,,,,,,,,,,,,,,1902,579.7296,18.51138889,-67.09805556,,135,4,,,,,,,,18.49472222,-67.1525,3,,,,,,,,,,,
,,,,,317,1678451350567,,,,,,,,,,,,,,,,,,,,,,,,,,1902,579.7296,18.51138889,-67.09805556,,135,4,,,,,,,,18.49472222,-67.1525,3,,,,,,,,,,,
,,,,,318,1678451350600,,,,,,,,,,,,,,,,,,,,,,,,,,1902,579.7296,18.51138889,-67.09805556,,135,4,,,,,,,,18.49472222,-67.1525,3,,,,,,,,,,,
,,,,,319,1678451350633,,,,,,,,,,,,,,,,,,,,,,,,,,1902,579.7296,18.51138889,-67.09805556,,135,4,,,,,,,,18.49472222,-67.1525,3,,,,,,,,,,,
,,,,,320,1678451350667,,,,,,,,,,,,,,,,,,,,,,,,,,1902,579.7296,18.51138889,-67.09805556,,135,4,,,,,,,,18.49472222,-67.15194444,3,,,,,,,,,,,
,,,,,321,1678451350700,,,,,,,,,,,,,,,,,,,,,,,,,,1902,579.7296,18.51166667,-67.09805556,,135,4,,,,,,,,18.49472222,-67.15194444,3,,,,,,,,,,,
,,,,,322,1678451350733,,,,,,,,,,,,,,,,,,,,,,,,,,1902,579.7296,18.51166667,-67.09805556,,135,4,,,,,,,,18.49472222,-67.15194444,3,,,,,,,,,,,
,,,,,323,1678451350767,,,,,,,,,,,,,,,,,,,,,,,,,,1902,579.7296,18.51166667,-67.09805556,,135,4,,,,,,,,18.49472222,-67.15194444,3,,,,,,,,,,,
,,,,,324,1678451350800,,,,,,,,,,,,,,,,,,,,,,,,,,1902,579.7296,18.51166667,-67.09805556,,135,4,,,,,,,,18.49472222,-67.15194444,3,,,,,,,,,,,
,,,,,325,1678451350833,,,,,,,,,,,,,,,,,,,,,,,,,,1902,579.7296,18.51166667,-67.09805556,,135,4,,,,,,,,18.49472222,-67.15194444,3,,,,,,,,,,,
,,,,,326,1678451350867,,,,,,,,,,,,,,,,,,,,,,,,,,1902,579.7296,18.51166667,-67.09805556,,135,4,,,,,,,,18.49472222,-67.15138889,3,,,,,,,,,,,
,,,,,327,1678451350900,,,,,,,,,,,,,,,,,,,,,,,,,,1902,579.7296,18.51166667,-67.09805556,,135,4,,,,,,,,18.49444444,-67.15138889,3,,,,,,,,,,,
,,,,,328,1678451350933,,,,,,,,,,,,,,,,,,,,,,,,,,1902,579.7296,18.51166667,-67.09805556,,135,4,,,,,,,,18.49444444,-67.15138889,3,,,,,,,,,,,
,,,,,329,1678451350967,,,,,,,,,,,,,,,,,,,,,,,,,,1902,579.7296,18.51166667,-67.09805556,,135,4,,,,,,,,18.49444444,-67.15138889,3,,,,,,,,,,,
,,,,,330,1678451351000,,,,,,,,,,,,,,,,,,,,,,,,,,1902,579.7296,18.51166667,-67.09805556,,135,4,,,,,,,,18.49444444,-67.15138889,3,,,,,,,,,,,
,,,,,331,1678451351033,,,,,,,,,,,,,,,,,,,,,,,,,,1902,579.7296,18.51166667,-67.09805556,,135,4,,,,,,,,18.49444444,-67.15138889,3,,,,,,,,,,,
,,,,,332,1678451351067,,,,,,,,,,,,,,,,,,,,,,,,,,1902,579.7296,18.51166667,-67.09805556,,135,4,,,,,,,,18.49444444,-67.15138889,3,,,,,,,,,,,
,,,,,333,1678451351100,,,,,,,,,,,,,,,,,,,,,,,,,,1902,579.7296,18.51166667,-67.09805556,,135,4,,,,,,,,18.49416667,-67.15166667,3,,,,,,,,,,,
,,,,,334,1678451351133,,,,,,,,,,,,,,,,,,,,,,,,,,1902,579.7296,18.51194444,-67.09805556,,135,4,,,,,,,,18.49416667,-67.15166667,3,,,,,,,,,,,
,,,,,335,1678451351167,,,,,,,,,,,,,,,,,,,,,,,,,,1902,579.7296,18.51194444,-67.09805556,,135,4,,,,,,,,18.49416667,-67.15166667,3,,,,,,,,,,,
,,,,,336,1678451351200,,,,,,,,,,,,,,,,,,,,,,,,,,1902,579.7296,18.51194444,-67.09805556,,135,4,,,,,,,,18.49416667,-67.15166667,3,,,,,,,,,,,
,,,,,337,1678451351233,,,,,,,,,,,,,,,,,,,,,,,,,,1902,579.7296,18.51194444,-67.09805556,,135,4,,,,,,,,18.49416667,-67.15166667,3,,,,,,,,,,,
,,,,,338,1678451351267,,,,,,,,,,,,,,,,,,,,,,,,,,1902,579.7296,18.51194444,-67.09805556,,135,4,,,,,,,,18.49416667,-67.15166667,3,,,,,,,,,,,
,,,,,339,1678451351300,,,,,,,,,,,,,,,,,,,,,,,,,,1903,580.0344,18.51194444,-67.09805556,,135,4,,,,,,,,18.49416667,-67.14638889,194,,,,,,,,,,,
,,,,,340,1678451351333,,,,,,,,,,,,,,,,,,,,,,,,,,1903,580.0344,18.51194444,-67.09833333,,135,4,,,,,,,,18.49555556,-67.14638889,194,,,,,,,,,,,
,,,,,341,1678451351367,,,,,,,,,,,,,,,,,,,,,,,,,,1903,580.0344,18.51194444,-67.09833333,,135,4,,,,,,,,18.49555556,-67.14638889,194,,,,,,,,,,,
,,,,,342,1678451351400,,,,,,,,,,,,,,,,,,,,,,,,,,1903,580.0344,18.51194444,-67.09833333,,135,4,,,,,,,,18.49555556,-67.14638889,194,,,,,,,,,,,
,,,,,343,1678451351433,,,,,,,,,,,,,,,,,,,,,,,,,,1903,580.0344,18.51194444,-67.09833333,,135,4,,,,,,,,18.49555556,-67.14638889,194,,,,,,,,,,,
,,,,,344,1678451351467,,,,,,,,,,,,,,,,,,,,,,,,,,1903,580.0344,18.51194444,-67.09833333,,135,4,,,,,,,,18.49555556,-67.14638889,194,,,,,,,,,,,
,,,,,345,1678451351500,,,,,,,,,,,,,,,,,,,,,,,,,,1903,580.0344,18.51194444,-67.09833333,,135,4,,,,,,,,18.49555556,-67.14666667,194,,,,,,,,,,,
,,,,,346,1678451351533,,,,,,,,,,,,,,,,,,,,,,,,,,1903,580.0344,18.51222222,-67.09833333,,135,4,,,,,,,,18.49555556,-67.14666667,194,,,,,,,,,,,
,,,,,347,1678451351567,,,,,,,,,,,,,,,,,,,,,,,,,,1903,580.0344,18.51222222,-67.09833333,,135,4,,,,,,,,18.49555556,-67.14666667,194,,,,,,,,,,,
,,,,,348,1678451351600,,,,,,,,,,,,,,,,,,,,,,,,,,1903,580.0344,18.51222222,-67.09833333,,135,4,,,,,,,,18.49555556,-67.14666667,194,,,,,,,,,,,
,,,,,349,1678451351633,,,,,,,,,,,,,,,,,,,,,,,,,,1903,580.0344,18.51222222,-67.09833333,,135,4,,,,,,,,18.49555556,-67.14666667,194,,,,,,,,,,,
,,,,,350,1678451351667,,,,,,,,,,,,,,,,,,,,,,,,,,1903,580.0344,18.51222222,-67.09833333,,135,4,,,,,,,,18.49555556,-67.14666667,194,,,,,,,,,,,
,,,,,351,1678451351700,,,,,,,,,,,,,,,,,,,,,,,,,,1903,580.0344,18.51222222,-67.09833333,,135,4,,,,,,,,18.49555556,-67.14666667,194,,,,,,,,,,,
,,,,,352,1678451351733,,,,,,,,,,,,,,,,,,,,,,,,,,1903,580.0344,18.51222222,-67.09833333,,135,4,,,,,,,,18.49555556,-67.14722222,194,,,,,,,,,,,
,,,,,353,1678451351767,,,,,,,,,,,,,,,,,,,,,,,,,,1903,580.0344,18.5125,-67.09833333,,135,4,,,,,,,,18.49527778,-67.14722222,194,,,,,,,,,,,
,,,,,354,1678451351800,,,,,,,,,,,,,,,,,,,,,,,,,,1903,580.0344,18.5125,-67.09833333,,135,4,,,,,,,,18.49527778,-67.14722222,194,,,,,,,,,,,
,,,,,355,1678451351833,,,,,,,,,,,,,,,,,,,,,,,,,,1903,580.0344,18.5125,-67.09833333,,135,4,,,,,,,,18.49527778,-67.14722222,194,,,,,,,,,,,
,,,,,356,1678451351867,,,,,,,,,,,,,,,,,,,,,,,,,,1903,580.0344,18.5125,-67.09833333,,135,4,,,,,,,,18.49527778,-67.14722222,194,,,,,,,,,,,
,,,,,357,1678451351900,,,,,,,,,,,,,,,,,,,,,,,,,,1903,580.0344,18.5125,-67.09833333,,135,4,,,,,,,,18.49527778,-67.14722222,194,,,,,,,,,,,
,,,,,358,1678451351933,,,,,,,,,,,,,,,,,,,,,,,,,,1904,580.3392,18.5125,-67.09833333,,135,4,,,,,,,,18.495,-67.14722222,194,,,,,,,,,,,
,,,,,359,1678451351967,,,,,,,,,,,,,,,,,,,,,,,,,,1904,580.3392,18.5125,-67.09861111,,135,4,,,,,,,,18.495,-67.14722222,194,,,,,,,,,,,
,,,,,360,1678451352000,,,,,,,,,,,,,,,,,,,,,,,,,,1904,580.3392,18.5125,-67.09861111,,135,4,,,,,,,,18.495,-67.14722222,194,,,,,,,,,,,
,,,,,361,1678451352033,,,,,,,,,,,,,,,,,,,,,,,,,,1904,580.3392,18.5125,-67.09861111,,135,4,,,,,,,,18.495,-67.14722222,194,,,,,,,,,,,
,,,,,362,1678451352067,,,,,,,,,,,,,,,,,,,,,,,,,,1904,580.3392,18.5125,-67.09861111,,135,4,,,,,,,,18.495,-67.14722222,194,,,,,,,,,,,
,,,,,363,1678451352100,,,,,,,,,,,,,,,,,,,,,,,,,,1904,580.3392,18.5125,-67.09861111,,135,4,,,,,,,,18.495,-67.14722222,194,,,,,,,,,,,
,,,,,364,1678451352133,,,,,,,,,,,,,,,,,,,,,,,,,,1904,580.3392,18.5125,-67.09861111,,135,4,,,,,,,,18.495,-67.14722222,194,,,,,,,,,,,
,,,,,365,1678451352167,,,,,,,,,,,,,,,,,,,,,,,,,,1905,580.644,18.5125,-67.09861111,,135,4,,,,,,,,18.495,-67.14777778,194,,,,,,,,,,,
,,,,,366,1678451352200,,,,,,,,,,,,,,,,,,,,,,,,,,1905,580.644,18.5125,-67.09861111,,135,4,,,,,,,,18.495,-67.14777778,194,,,,,,,,,,,
,,,,,367,1678451352233,,,,,,,,,,,,,,,,,,,,,,,,,,1905,580.644,18.51277778,-67.09861111,,135,4,,,,,,,,18.495,-67.14777778,194,,,,,,,,,,,
,,,,,368,1678451352267,,,,,,,,,,,,,,,,,,,,,,,,,,1905,580.644,18.51277778,-67.09861111,,135,4,,,,,,,,18.495,-67.14777778,194,,,,,,,,,,,
,,,,,369,1678451352300,,,,,,,,,,,,,,,,,,,,,,,,,,1905,580.644,18.51277778,-67.09861111,,135,4,,,,,,,,18.495,-67.14777778,194,,,,,,,,,,,
,,,,,370,1678451352333,,,,,,,,,,,,,,,,,,,,,,,,,,1905,580.644,18.51277778,-67.09861111,,135,4,,,,,,,,18.495,-67.14777778,194,,,,,,,,,,,
,,,,,371,1678451352367,,,,,,,,,,,,,,,,,,,,,,,,,,1905,580.644,18.51277778,-67.09861111,,135,4,,,,,,,,18.495,-67.1475,210,,,,,,,,,,,
,,,,,372,1678451352400,,,,,,,,,,,,,,,,,,,,,,,,,,1905,580.644,18.51277778,-67.09861111,,135,4,,,,,,,,18.495,-67.1475,210,,,,,,,,,,,
,,,,,373,1678451352433,,,,,,,,,,,,,,,,,,,,,,,,,,1905,580.644,18.51305556,-67.09861111,,135,4,,,,,,,,18.495,-67.1475,210,,,,,,,,,,,
,,,,,374,1678451352467,,,,,,,,,,,,,,,,,,,,,,,,,,1905,580.644,18.51305556,-67.09861111,,135,4,,,,,,,,18.495,-67.1475,210,,,,,,,,,,,
,,,,,375,1678451352500,,,,,,,,,,,,,,,,,,,,,,,,,,1905,580.644,18.51305556,-67.09861111,,135,4,,,,,,,,18.495,-67.1475,210,,,,,,,,,,,
,,,,,376,1678451352533,,,,,,,,,,,,,,,,,,,,,,,,,,1905,580.644,18.51305556,-67.09861111,,135,4,,,,,,,,18.495,-67.1475,210,,,,,,,,,,,
,,,,,377,1678451352567,,,,,,,,,,,,,,,,,,,,,,,,,,1905,580.644,18.51305556,-67.09861111,,135,4,,,,,,,,18.495,-67.1475,210,,,,,,,,,,,
,,,,,378,1678451352600,,,,,,,,,,,,,,,,,,,,,,,,,,1906,580.9488,18.51305556,-67.09861111,,135,4,,,,,,,,18.495,-67.1475,210,,,,,,,,,,,
,,,,,379,1678451352633,,,,,,,,,,,,,,,,,,,,,,,,,,1906,580.9488,18.51305556,-67.09888889,,135,4,,,,,,,,18.495,-67.1475,210,,,,,,,,,,,
,,,,,380,1678451352667,,,,,,,,,,,,,,,,,,,,,,,,,,1906,580.9488,18.51305556,-67.09888889,,135,4,,,,,,,,18.495,-67.1475,210,,,,,,,,,,,
,,,,,381,1678451352700,,,,,,,,,,,,,,,,,,,,,,,,,,1906,580.9488,18.51305556,-67.09888889,,135,4,,,,,,,,18.495,-67.1475,210,,,,,,,,,,,
,,,,,382,1678451352733,,,,,,,,,,,,,,,,,,,,,,,,,,1906,580.9488,18.51305556,-67.09888889,,135,4,,,,,,,,18.495,-67.1475,210,,,,,,,,,,,
,,,,,383,1678451352767,,,,,,,,,,,,,,,,,,,,,,,,,,1906,580.9488,18.51305556,-67.09888889,,135,4,,,,,,,,18.495,-67.1475,210,,,,,,,,,,,
,,,,,384,1678451352800,,,,,,,,,,,,,,,,,,,,,,,,,,1906,580.9488,18.51305556,-67.09888889,,135,4,,,,,,,,18.495,-67.1475,210,,,,,,,,,,,
,,,,,385,1678451352833,,,,,,,,,,,,,,,,,,,,,,,,,,1906,580.9488,18.51333333,-67.09888889,,135,4,,,,,,,,18.495,-67.1475,210,,,,,,,,,,,
,,,,,386,1678451352867,,,,,,,,,,,,,,,,,,,,,,,,,,1906,580.9488,18.51333333,-67.09888889,,135,4,,,,,,,,18.495,-67.1475,210,,,,,,,,,,,
,,,,,387,1678451352900,,,,,,,,,,,,,,,,,,,,,,,,,,1906,580.9488,18.51333333,-67.09888889,,135,4,,,,,,,,18.495,-67.1475,210,,,,,,,,,,,
,,,,,388,1678451352933,,,,,,,,,,,,,,,,,,,,,,,,,,1906,580.9488,18.51333333,-67.09888889,,135,4,,,,,,,,18.495,-67.1475,210,,,,,,,,,,,
,,,,,389,1678451352967,,,,,,,,,,,,,,,,,,,,,,,,,,1906,580.9488,18.51333333,-67.09888889,,135,4,,,,,,,,18.495,-67.1475,210,,,,,,,,,,,
,,,,,390,1678451353000,,,,,,,,,,,,,,,,,,,,,,,,,,1907,581.2536,18.51333333,-67.09888889,,135,4,,,,,,,,18.495,-67.1475,210,,,,,,,,,,,
,,,,,391,1678451353033,,,,,,,,,,,,,,,,,,,,,,,,,,1907,581.2536,18.51333333,-67.09888889,,135,4,,,,,,,,18.495,-67.1475,210,,,,,,,,,,,
,,,,,392,1678451353067,,,,,,,,,,,,,,,,,,,,,,,,,,1907,581.2536,18.51333333,-67.09888889,,135,4,,,,,,,,18.495,-67.1475,210,,,,,,,,,,,
,,,,,393,1678451353100,,,,,,,,,,,,,,,,,,,,,,,,,,1907,581.2536,18.51333333,-67.09888889,,135,4,,,,,,,,18.495,-67.1475,210,,,,,,,,,,,
,,,,,394,1678451353133,,,,,,,,,,,,,,,,,,,,,,,,,,1907,581.2536,18.51333333,-67.09888889,,135,4,,,,,,,,18.495,-67.1475,210,,,,,,,,,,,
,,,,,395,1678451353167,,,,,,,,,,,,,,,,,,,,,,,,,,1907,581.2536,18.51333333,-67.09888889,,135,4,,,,,,,,18.495,-67.1475,210,,,,,,,,,,,
,,,,,396,1678451353200,,,,,,,,,,,,,,,,,,,,,,,,,,1907,581.2536,18.51333333,-67.09888889,,135,4,,,,,,,,18.495,-67.1475,210,,,,,,,,,,,
,,,,,397,1678451353233,,,,,,,,,,,,,,,,,,,,,,,,,,1907,581.2536,18.51333333,-67.09888889,,135,4,,,,,,,,18.495,-67.14694444,210,,,,,,,,,,,
,,,,,398,1678451353267,,,,,,,,,,,,,,,,,,,,,,,,,,1907,581.2536,18.51361111,-67.09916667,,135,4,,,,,,,,18.495,-67.14694444,210,,,,,,,,,,,
,,,,,399,1678451353300,,,,,,,,,,,,,,,,,,,,,,,,,,1907,581.2536,18.51361111,-67.09916667,,135,4,,,,,,,,18.495,-67.14694444,210,,,,,,,,,,,
,,,,,400,1678451353333,,,,,,,,,,,,,,,,,,,,,,,,,,1907,581.2536,18.51361111,-67.09916667,,135,4,,,,,,,,18.495,-67.14694444,210,,,,,,,,,,,
,,,,,401,1678451353367,,,,,,,,,,,,,,,,,,,,,,,,,,1907,581.2536,18.51361111,-67.09916667,,135,4,,,,,,,,18.495,-67.14694444,210,,,,,,,,,,,
,,,,,402,1678451353400,,,,,,,,,,,,,,,,,,,,,,,,,,1907,581.2536,18.51361111,-67.09916667,,135,4,,,,,,,,18.495,-67.14694444,210,,,,,,,,,,,
,,,,,403,1678451353433,,,,,,,,,,,,,,,,,,,,,,,,,,1908,581.5584,18.51361111,-67.09916667,,135,4,,,,,,,,18.49472222,-67.14694444,210,,,,,,,,,,,
,,,,,404,1678451353467,,,,,,,,,,,,,,,,,,,,,,,,,,1908,581.5584,18.51388889,-67.09916667,,135,4,,,,,,,,18.49472222,-67.14638889,207,,,,,,,,,,,
,,,,,405,1678451353500,,,,,,,,,,,,,,,,,,,,,,,,,,1908,581.5584,18.51388889,-67.09916667,,135,4,,,,,,,,18.49472222,-67.14638889,207,,,,,,,,,,,
,,,,,406,1678451353533,,,,,,,,,,,,,,,,,,,,,,,,,,1908,581.5584,18.51388889,-67.09916667,,135,4,,,,,,,,18.49472222,-67.14638889,207,,,,,,,,,,,
,,,,,407,1678451353567,,,,,,,,,,,,,,,,,,,,,,,,,,1908,581.5584,18.51388889,-67.09916667,,135,4,,,,,,,,18.49472222,-67.14638889,207,,,,,,,,,,,
,,,,,408,1678451353600,,,,,,,,,,,,,,,,,,,,,,,,,,1908,581.5584,18.51388889,-67.09916667,,135,4,,,,,,,,18.49472222,-67.14638889,207,,,,,,,,,,,
,,,,,409,1678451353633,,,,,,,,,,,,,,,,,,,,,,,,,,1908,581.5584,18.51388889,-67.09916667,,135,4,,,,,,,,18.49472222,-67.14638889,207,,,,,,,,,,,
,,,,,410,1678451353667,,,,,,,,,,,,,,,,,,,,,,,,,,1909,581.8632,18.51388889,-67.09916667,,135,4,,,,,,,,18.49444444,-67.14611111,207,,,,,,,,,,,
,,,,,411,1678451353700,,,,,,,,,,,,,,,,,,,,,,,,,,1909,581.8632,18.51388889,-67.09916667,,135,4,,,,,,,,18.49444444,-67.14611111,207,,,,,,,,,,,
,,,,,412,1678451353733,,,,,,,,,,,,,,,,,,,,,,,,,,1909,581.8632,18.51388889,-67.09916667,,135,4,,,,,,,,18.49444444,-67.14611111,207,,,,,,,,,,,
,,,,,413,1678451353767,,,,,,,,,,,,,,,,,,,,,,,,,,1909,581.8632,18.51388889,-67.09916667,,135,4,,,,,,,,18.49444444,-67.14611111,207,,,,,,,,,,,
,,,,,414,1678451353800,,,,,,,,,,,,,,,,,,,,,,,,,,1909,581.8632,18.51388889,-67.09916667,,135,4,,,,,,,,18.49444444,-67.14611111,207,,,,,,,,,,,
,,,,,415,1678451353833,,,,,,,,,,,,,,,,,,,,,,,,,,1909,581.8632,18.51388889,-67.09916667,,135,4,,,,,,,,18.49444444,-67.14611111,207,,,,,,,,,,,
,,,,,416,1678451353867,,,,,,,,,,,,,,,,,,,,,,,,,,1909,581.8632,18.51388889,-67.09916667,,135,4,,,,,,,,18.49444444,-67.14611111,207,,,,,,,,,,,
,,,,,417,1678451353900,,,,,,,,,,,,,,,,,,,,,,,,,,1909,581.8632,18.51416667,-67.09944444,,135,4,,,,,,,,18.49416667,-67.14611111,207,,,,,,,,,,,
,,,,,418,1678451353933,,,,,,,,,,,,,,,,,,,,,,,,,,1909,581.8632,18.51416667,-67.09944444,,135,4,,,,,,,,18.49416667,-67.14611111,207,,,,,,,,,,,
,,,,,419,1678451353967,,,,,,,,,,,,,,,,,,,,,,,,,,1909,581.8632,18.51416667,-67.09944444,,135,4,,,,,,,,18.49416667,-67.14611111,207,,,,,,,,,,,
,,,,,420,1678451354000,,,,,,,,,,,,,,,,,,,,,,,,,,1909,581.8632,18.51416667,-67.09944444,,135,4,,,,,,,,18.49416667,-67.14611111,207,,,,,,,,,,,
,,,,,421,1678451354033,,,,,,,,,,,,,,,,,,,,,,,,,,1909,581.8632,18.51416667,-67.09944444,,135,4,,,,,,,,18.49416667,-67.14611111,207,,,,,,,,,,,
,,,,,422,1678451354067,,,,,,,,,,,,,,,,,,,,,,,,,,1909,581.8632,18.51416667,-67.09944444,,135,4,,,,,,,,18.49416667,-67.14611111,207,,,,,,,,,,,
,,,,,423,1678451354100,,,,,,,,,,,,,,,,,,,,,,,,,,1910,582.168,18.51416667,-67.09944444,,135,4,,,,,,,,18.49388889,-67.14611111,207,,,,,,,,,,,
,,,,,424,1678451354133,,,,,,,,,,,,,,,,,,,,,,,,,,1910,582.168,18.51416667,-67.09944444,,135,4,,,,,,,,18.49388889,-67.14611111,207,,,,,,,,,,,
,,,,,425,1678451354167,,,,,,,,,,,,,,,,,,,,,,,,,,1910,582.168,18.51416667,-67.09944444,,135,4,,,,,,,,18.49388889,-67.14611111,207,,,,,,,,,,,
,,,,,426,1678451354200,,,,,,,,,,,,,,,,,,,,,,,,,,1910,582.168,18.51416667,-67.09944444,,135,4,,,,,,,,18.49388889,-67.14611111,207,,,,,,,,,,,
,,,,,427,1678451354233,,,,,,,,,,,,,,,,,,,,,,,,,,1910,582.168,18.51416667,-67.09944444,,135,4,,,,,,,,18.49388889,-67.14611111,207,,,,,,,,,,,
,,,,,428,1678451354267,,,,,,,,,,,,,,,,,,,,,,,,,,1910,582.168,18.51416667,-67.09944444,,135,4,,,,,,,,18.49388889,-67.14611111,207,,,,,,,,,,,
,,,,,429,1678451354300,,,,,,,,,,,,,,,,,,,,,,,,,,1910,582.168,18.51416667,-67.09944444,,135,4,,,,,,,,18.49388889,-67.14611111,213,,,,,,,,,,,
