DPTS,Security:,Security Classification,UAS LS Version,UNIX Time Stamp date,UNIC Time Stamp,Checksum,Mission _ Platform,Mission ID,Platform Designation,Platform Tail Number,Laser PRF Code,Flight Data:,Platform Fuel Remaining,Density Altitude,Platform True Airspeed,Platform Indicated Airspeed,Platform Ground Speed,Platform Heading Angle,Platform Magnetic Heading,Platform Angle of Attack,Platform Pitch Angle,Platform Roll Angle,Static Pressure,Outside Air Temperature,Icing Detected,Wind Direction,Wind Speed,Sensor Data:,Image Source Sensor,Image Coordinate System,Sensor True Altitude,Sensor Latitude,Sensor Longitude,Sensor Horizontal Field of View,Sensor Vertical Field of View,Sensor Relative Azimuth Angle,Sensor Relative Elevation Angle,Sensor Relative Roll Angle,Target Data:,Slant Range,Ground Range,Target Width,Frame Center Latitude,Frame Center Longitude,Frame Center Elevation,Generic Flag Data:,Laser Range,Auto-Track,IR Polarity,Icing Status,Slant Range,Image Invalid,Reserved bit6,Reserved bit7,PTS,DUTC
,,,,40000,1678422548000,,,,,,,,,,,,,123.4567891,123.4567891,-0.123456789,-0.123456789,-0.123456789,123.4567891,,,123.4567891,123.4567891,,,Geodetic WGS84,1875,12.12345678,12.12345678,1.123456789,1.123456789,123.1234567,-1.123456789,,,12345.12345,12345.12345,9999.999999,18.50416667,-67.15666667,0,,,,,,,,,,,
,,,,,1678422548033,,,,,,,,,,,,,,,,,,,,,,,,,,1875,18.5025,-67.09666667,,,,,,,,,,18.50416667,-67.15666667,0,,,,,,,,,,,
,,,,,1678422548067,,,,,,,,,,,,,,,,,,,,,,,,,,1875,18.5025,-67.09666667,,,,,,,,,,18.50416667,-67.15666667,0,,,,,,,,,,,
,,,,,1678422548100,,,,,,,,,,,,,,,,,,,,,,,,,,1875,18.5025,-67.09666667,,,,,,,,,,18.50416667,-67.15666667,0,,,,,,,,,,,
,,,,,1678422548133,,,,,,,,,,,,,,,,,,,,,,,,,,1875,18.5025,-67.09666667,,,,,,,,,,18.50416667,-67.15666667,0,,,,,,,,,,,
,,,,,1678422548167,,,,,,,,,,,,,,,,,,,,,,,,,,1875,18.5025,-67.09666667,,,,,,,,,,18.50416667,-67.15666667,0,,,,,,,,,,,
,,,,,1678422548200,,,,,,,,,,,,,,,,,,,,,,,,,,1875,18.5025,-67.09666667,,,,,,,,,,18.50416667,-67.15666667,0,,,,,,,,,,,
,,,,,1678422548233,,,,,,,,,,,,,,,,,,,,,,,,,,1875,18.5025,-67.09666667,,,,,,,,,,18.50416667,-67.15666667,0,,,,,,,,,,,
,,,,,1678422548267,,,,,,,,,,,,,,,,,,,,,,,,,,1875,18.50277778,-67.09666667,,,,,,,,,,18.50416667,-67.15666667,0,,,,,,,,,,,
,,,,,1678422548300,,,,,,,,,,,,,,,,,,,,,,,,,,1875,18.50277778,-67.09666667,,,,,,,,,,18.50416667,-67.15666667,0,,,,,,,,,,,
,,,,,1678422548333,,,,,,,,,,,,,,,,,,,,,,,,,,1875,18.50277778,-67.09666667,,,,,,,,,,18.50416667,-67.15666667,0,,,,,,,,,,,
,,,,,1678422548367,,,,,,,,,,,,,,,,,,,,,,,,,,1875,18.50277778,-67.09666667,,,,,,,,,,18.50416667,-67.15666667,0,,,,,,,,,,,
,,,,,1678422548400,,,,,,,,,,,,,,,,,,,,,,,,,,1875,18.50277778,-67.09666667,,,,,,,,,,18.50416667,-67.15666667,0,,,,,,,,,,,
,,,,,1678422548433,,,,,,,,,,,,,,,,,,,,,,,,,,1875,18.50277778,-67.09666667,,,,,,,,,,18.50416667,-67.15666667,0,,,,,,,,,,,
,,,,,1678422548467,,,,,,,,,,,,,,,,,,,,,,,,,,1876,18.50277778,-67.09666667,,,,,,,,,,18.50388889,-67.15666667,0,,,,,,,,,,,
,,,,,1678422548500,,,,,,,,,,,,,,,,,,,,,,,,,,1876,18.50305556,-67.09666667,,,,,,,,,,18.50388889,-67.15666667,0,,,,,,,,,,,
,,,,,1678422548533,,,,,,,,,,,,,,,,,,,,,,,,,,1876,18.50305556,-67.09666667,,,,,,,,,,18.50388889,-67.15666667,0,,,,,,,,,,,
,,,,,1678422548567,,,,,,,,,,,,,,,,,,,,,,,,,,1876,18.50305556,-67.09666667,,,,,,,,,,18.50388889,-67.15666667,0,,,,,,,,,,,
,,,,,1678422548600,,,,,,,,,,,,,,,,,,,,,,,,,,1876,18.50305556,-67.09666667,,,,,,,,,,18.50388889,-67.15666667,0,,,,,,,,,,,
,,,,,1678422548633,,,,,,,,,,,,,,,,,,,,,,,,,,1876,18.50305556,-67.09666667,,,,,,,,,,18.50361111,-67.15666667,0,,,,,,,,,,,
,,,,,1678422548667,,,,,,,,,,,,,,,,,,,,,,,,,,1876,18.50305556,-67.09666667,,,,,,,,,,18.50361111,-67.15666667,0,,,,,,,,,,,
,,,,,1678422548700,,,,,,,,,,,,,,,,,,,,,,,,,,1876,18.50305556,-67.09666667,,,,,,,,,,18.50361111,-67.15666667,0,,,,,,,,,,,
,,,,,1678422548733,,,,,,,,,,,,,,,,,,,,,,,,,,1876,18.50305556,-67.09666667,,,,,,,,,,18.50361111,-67.15666667,0,,,,,,,,,,,
,,,,,1678422548767,,,,,,,,,,,,,,,,,,,,,,,,,,1876,18.50305556,-67.09666667,,,,,,,,,,18.50361111,-67.15666667,0,,,,,,,,,,,
,,,,,1678422548800,,,,,,,,,,,,,,,,,,,,,,,,,,1876,18.50305556,-67.09666667,,,,,,,,,,18.50361111,-67.15666667,0,,,,,,,,,,,
,,,,,1678422548833,,,,,,,,,,,,,,,,,,,,,,,,,,1876,18.50305556,-67.09666667,,,,,,,,,,18.50361111,-67.15666667,0,,,,,,,,,,,
,,,,,1678422548867,,,,,,,,,,,,,,,,,,,,,,,,,,1876,18.50305556,-67.09666667,,,,,,,,,,18.50361111,-67.15666667,0,,,,,,,,,,,
,,,,,1678422548900,,,,,,,,,,,,,,,,,,,,,,,,,,1877,18.50305556,-67.09666667,,,,,,,,,,18.50361111,-67.15666667,0,,,,,,,,,,,
,,,,,1678422548933,,,,,,,,,,,,,,,,,,,,,,,,,,1877,18.50333333,-67.09666667,,,,,,,,,,18.50361111,-67.15666667,0,,,,,,,,,,,
,,,,,1678422548967,,,,,,,,,,,,,,,,,,,,,,,,,,1877,18.50333333,-67.09666667,,,,,,,,,,18.50361111,-67.15666667,0,,,,,,,,,,,
,,,,,1678422549000,,,,,,,,,,,,,,,,,,,,,,,,,,1877,18.50333333,-67.09666667,,,,,,,,,,18.50361111,-67.15666667,0,,,,,,,,,,,
,,,,,1678422549033,,,,,,,,,,,,,,,,,,,,,,,,,,1877,18.50333333,-67.09666667,,,,,,,,,,18.50361111,-67.15666667,0,,,,,,,,,,,
,,,,,1678422549067,,,,,,,,,,,,,,,,,,,,,,,,,,1877,18.50333333,-67.09666667,,,,,,,,,,18.50361111,-67.15666667,0,,,,,,,,,,,
,,,,,1678422549100,,,,,,,,,,,,,,,,,,,,,,,,,,1878,18.50333333,-67.09666667,,,,,,,,,,18.50361111,-67.15666667,0,,,,,,,,,,,
,,,,,1678422549133,,,,,,,,,,,,,,,,,,,,,,,,,,1878,18.50333333,-67.09666667,,,,,,,,,,18.50333333,-67.15666667,0,,,,,,,,,,,
,,,,,1678422549167,,,,,,,,,,,,,,,,,,,,,,,,,,1878,18.50361111,-67.09666667,,,,,,,,,,18.50333333,-67.15666667,0,,,,,,,,,,,
,,,,,1678422549200,,,,,,,,,,,,,,,,,,,,,,,,,,1878,18.50361111,-67.09666667,,,,,,,,,,18.50333333,-67.15666667,0,,,,,,,,,,,
,,,,,1678422549233,,,,,,,,,,,,,,,,,,,,,,,,,,1878,18.50361111,-67.09666667,,,,,,,,,,18.50333333,-67.15666667,0,,,,,,,,,,,
,,,,,1678422549267,,,,,,,,,,,,,,,,,,,,,,,,,,1878,18.50361111,-67.09666667,,,,,,,,,,18.50333333,-67.15666667,0,,,,,,,,,,,
,,,,,1678422549300,,,,,,,,,,,,,,,,,,,,,,,,,,1878,18.50361111,-67.09666667,,,,,,,,,,18.50333333,-67.15666667,0,,,,,,,,,,,
,,,,,1678422549333,,,,,,,,,,,,,,,,,,,,,,,,,,1879,18.50361111,-67.09666667,,,,,,,,,,18.50277778,-67.15666667,0,,,,,,,,,,,
,,,,,1678422549367,,,,,,,,,,,,,,,,,,,,,,,,,,1879,18.50361111,-67.09666667,,,,,,,,,,18.50277778,-67.15666667,0,,,,,,,,,,,
,,,,,1678422549400,,,,,,,,,,,,,,,,,,,,,,,,,,1879,18.50361111,-67.09666667,,,,,,,,,,18.50277778,-67.15666667,0,,,,,,,,,,,
,,,,,1678422549433,,,,,,,,,,,,,,,,,,,,,,,,,,1879,18.50361111,-67.09666667,,,,,,,,,,18.50277778,-67.15666667,0,,,,,,,,,,,
,,,,,1678422549467,,,,,,,,,,,,,,,,,,,,,,,,,,1879,18.50361111,-67.09666667,,,,,,,,,,18.50277778,-67.15666667,0,,,,,,,,,,,
,,,,,1678422549500,,,,,,,,,,,,,,,,,,,,,,,,,,1879,18.50361111,-67.09666667,,,,,,,,,,18.50277778,-67.15666667,0,,,,,,,,,,,
,,,,,1678422549533,,,,,,,,,,,,,,,,,,,,,,,,,,1879,18.50361111,-67.09666667,,,,,,,,,,18.50277778,-67.15666667,0,,,,,,,,,,,
,,,,,1678422549567,,,,,,,,,,,,,,,,,,,,,,,,,,1879,18.50361111,-67.09666667,,,,,,,,,,18.5025,-67.15638889,0,,,,,,,,,,,
,,,,,1678422549600,,,,,,,,,,,,,,,,,,,,,,,,,,1879,18.50388889,-67.09666667,,,,,,,,,,18.5025,-67.15638889,0,,,,,,,,,,,
,,,,,1678422549633,,,,,,,,,,,,,,,,,,,,,,,,,,1879,18.50388889,-67.09666667,,,,,,,,,,18.5025,-67.15638889,0,,,,,,,,,,,
,,,,,1678422549667,,,,,,,,,,,,,,,,,,,,,,,,,,1879,18.50388889,-67.09666667,,,,,,,,,,18.5025,-67.15638889,0,,,,,,,,,,,
,,,,,1678422549700,,,,,,,,,,,,,,,,,,,,,,,,,,1879,18.50388889,-67.09666667,,,,,,,,,,18.5025,-67.15638889,0,,,,,,,,,,,
,,,,,1678422549733,,,,,,,,,,,,,,,,,,,,,,,,,,1879,18.50388889,-67.09666667,,,,,,,,,,18.5025,-67.15638889,0,,,,,,,,,,,
,,,,,1678422549767,,,,,,,,,,,,,,,,,,,,,,,,,,1879,18.50388889,-67.09666667,,,,,,,,,,18.5025,-67.15638889,0,,,,,,,,,,,
,,,,,1678422549800,,,,,,,,,,,,,,,,,,,,,,,,,,1879,18.50388889,-67.09666667,,,,,,,,,,18.50222222,-67.15666667,0,,,,,,,,,,,
,,,,,1678422549833,,,,,,,,,,,,,,,,,,,,,,,,,,1879,18.50416667,-67.09666667,,,,,,,,,,18.50222222,-67.15666667,0,,,,,,,,,,,
,,,,,1678422549867,,,,,,,,,,,,,,,,,,,,,,,,,,1879,18.50416667,-67.09666667,,,,,,,,,,18.50222222,-67.15666667,0,,,,,,,,,,,
,,,,,1678422549900,,,,,,,,,,,,,,,,,,,,,,,,,,1879,18.50416667,-67.09666667,,,,,,,,,,18.50222222,-67.15666667,0,,,,,,,,,,,
,,,,,1678422549933,,,,,,,,,,,,,,,,,,,,,,,,,,1879,18.50416667,-67.09666667,,,,,,,,,,18.50222222,-67.15666667,0,,,,,,,,,,,
,,,,,1678422549967,,,,,,,,,,,,,,,,,,,,,,,,,,1879,18.50416667,-67.09666667,,,,,,,,,,18.50222222,-67.15666667,0,,,,,,,,,,,
,,,,,1678422550000,,,,,,,,,,,,,,,,,,,,,,,,,,1880,18.50416667,-67.09666667,,,,,,,,,,18.50194444,-67.15666667,0,,,,,,,,,,,
,,,,,1678422550033,,,,,,,,,,,,,,,,,,,,,,,,,,1880,18.50416667,-67.09666667,,,,,,,,,,18.50194444,-67.15666667,0,,,,,,,,,,,
,,,,,1678422550067,,,,,,,,,,,,,,,,,,,,,,,,,,1880,18.50416667,-67.09666667,,,,,,,,,,18.50194444,-67.15666667,0,,,,,,,,,,,
,,,,,1678422550100,,,,,,,,,,,,,,,,,,,,,,,,,,1880,18.50416667,-67.09666667,,,,,,,,,,18.50194444,-67.15666667,0,,,,,,,,,,,
,,,,,1678422550133,,,,,,,,,,,,,,,,,,,,,,,,,,1880,18.50416667,-67.09666667,,,,,,,,,,18.50194444,-67.15666667,0,,,,,,,,,,,
,,,,,1678422550167,,,,,,,,,,,,,,,,,,,,,,,,,,1880,18.50416667,-67.09666667,,,,,,,,,,18.50194444,-67.15666667,0,,,,,,,,,,,
,,,,,1678422550200,,,,,,,,,,,,,,,,,,,,,,,,,,1880,18.50416667,-67.09666667,,,,,,,,,,18.50194444,-67.15666667,0,,,,,,,,,,,
,,,,,1678422550233,,,,,,,,,,,,,,,,,,,,,,,,,,1881,18.50416667,-67.09666667,,,,,,,,,,18.50194444,-67.15694444,0,,,,,,,,,,,
,,,,,1678422550267,,,,,,,,,,,,,,,,,,,,,,,,,,1881,18.50444444,-67.09666667,,,,,,,,,,18.50194444,-67.15694444,0,,,,,,,,,,,
,,,,,1678422550300,,,,,,,,,,,,,,,,,,,,,,,,,,1881,18.50444444,-67.09666667,,,,,,,,,,18.50194444,-67.15694444,0,,,,,,,,,,,
,,,,,1678422550333,,,,,,,,,,,,,,,,,,,,,,,,,,1881,18.50444444,-67.09666667,,,,,,,,,,18.50194444,-67.15694444,0,,,,,,,,,,,
,,,,,1678422550367,,,,,,,,,,,,,,,,,,,,,,,,,,1881,18.50444444,-67.09666667,,,,,,,,,,18.50194444,-67.15694444,0,,,,,,,,,,,
,,,,,1678422550400,,,,,,,,,,,,,,,,,,,,,,,,,,1881,18.50444444,-67.09666667,,,,,,,,,,18.50194444,-67.15694444,0,,,,,,,,,,,
,,,,,1678422550433,,,,,,,,,,,,,,,,,,,,,,,,,,1881,18.50444444,-67.09666667,,,,,,,,,,18.50194444,-67.15694444,0,,,,,,,,,,,
,,,,,1678422550467,,,,,,,,,,,,,,,,,,,,,,,,,,1881,18.50444444,-67.09666667,,,,,,,,,,18.50194444,-67.15694444,0,,,,,,,,,,,
,,,,,1678422550500,,,,,,,,,,,,,,,,,,,,,,,,,,1881,18.50472222,-67.09666667,,,,,,,,,,18.50194444,-67.15694444,0,,,,,,,,,,,
,,,,,1678422550533,,,,,,,,,,,,,,,,,,,,,,,,,,1881,18.50472222,-67.09666667,,,,,,,,,,18.50194444,-67.15694444,0,,,,,,,,,,,
,,,,,1678422550567,,,,,,,,,,,,,,,,,,,,,,,,,,1881,18.50472222,-67.09666667,,,,,,,,,,18.50194444,-67.15694444,0,,,,,,,,,,,
,,,,,1678422550600,,,,,,,,,,,,,,,,,,,,,,,,,,1881,18.50472222,-67.09666667,,,,,,,,,,18.50194444,-67.15694444,0,,,,,,,,,,,
,,,,,1678422550633,,,,,,,,,,,,,,,,,,,,,,,,,,1881,18.50472222,-67.09666667,,,,,,,,,,18.50194444,-67.15694444,0,,,,,,,,,,,
,,,,,1678422550667,,,,,,,,,,,,,,,,,,,,,,,,,,1881,18.50472222,-67.09666667,,,,,,,,,,18.50194444,-67.15694444,0,,,,,,,,,,,
,,,,,1678422550700,,,,,,,,,,,,,,,,,,,,,,,,,,1881,18.50472222,-67.09666667,,,,,,,,,,18.50194444,-67.15694444,0,,,,,,,,,,,
,,,,,1678422550733,,,,,,,,,,,,,,,,,,,,,,,,,,1881,18.50472222,-67.09666667,,,,,,,,,,18.50194444,-67.15694444,0,,,,,,,,,,,
,,,,,1678422550767,,,,,,,,,,,,,,,,,,,,,,,,,,1881,18.50472222,-67.09666667,,,,,,,,,,18.50194444,-67.15694444,0,,,,,,,,,,,
,,,,,1678422550800,,,,,,,,,,,,,,,,,,,,,,,,,,1881,18.50472222,-67.09666667,,,,,,,,,,18.50194444,-67.15694444,0,,,,,,,,,,,
,,,,,1678422550833,,,,,,,,,,,,,,,,,,,,,,,,,,1881,18.50472222,-67.09666667,,,,,,,,,,18.50194444,-67.15694444,0,,,,,,,,,,,
,,,,,1678422550867,,,,,,,,,,,,,,,,,,,,,,,,,,1882,18.50472222,-67.09666667,,,,,,,,,,18.50194444,-67.15694444,0,,,,,,,,,,,
,,,,,1678422550900,,,,,,,,,,,,,,,,,,,,,,,,,,1882,18.505,-67.09666667,,,,,,,,,,18.50194444,-67.15694444,0,,,,,,,,,,,
,,,,,1678422550933,,,,,,,,,,,,,,,,,,,,,,,,,,1882,18.505,-67.09666667,,,,,,,,,,18.50194444,-67.15694444,0,,,,,,,,,,,
,,,,,1678422550967,,,,,,,,,,,,,,,,,,,,,,,,,,1882,18.505,-67.09666667,,,,,,,,,,18.50194444,-67.15694444,0,,,,,,,,,,,
,,,,,1678422551000,,,,,,,,,,,,,,,,,,,,,,,,,,1882,18.505,-67.09666667,,,,,,,,,,18.50194444,-67.15694444,0,,,,,,,,,,,
,,,,,1678422551033,,,,,,,,,,,,,,,,,,,,,,,,,,1882,18.505,-67.09666667,,,,,,,,,,18.50194444,-67.15694444,0,,,,,,,,,,,
,,,,,1678422551067,,,,,,,,,,,,,,,,,,,,,,,,,,1882,18.505,-67.09666667,,,,,,,,,,18.50194444,-67.15694444,0,,,,,,,,,,,
,,,,,1678422551100,,,,,,,,,,,,,,,,,,,,,,,,,,1882,18.505,-67.09666667,,,,,,,,,,18.50194444,-67.15694444,0,,,,,,,,,,,
,,,,,1678422551133,,,,,,,,,,,,,,,,,,,,,,,,,,1883,18.505,-67.09666667,,,,,,,,,,18.50194444,-67.15694444,0,,,,,,,,,,,
,,,,,1678422551167,,,,,,,,,,,,,,,,,,,,,,,,,,1883,18.505,-67.09666667,,,,,,,,,,18.50138889,-67.15694444,0,,,,,,,,,,,
,,,,,1678422551200,,,,,,,,,,,,,,,,,,,,,,,,,,1883,18.50527778,-67.09666667,,,,,,,,,,18.50138889,-67.15638889,0,,,,,,,,,,,
,,,,,1678422551233,,,,,,,,,,,,,,,,,,,,,,,,,,1883,18.50527778,-67.09666667,,,,,,,,,,18.50166667,-67.15638889,0,,,,,,,,,,,
,,,,,1678422551267,,,,,,,,,,,,,,,,,,,,,,,,,,1883,18.50527778,-67.09666667,,,,,,,,,,18.50166667,-67.15638889,0,,,,,,,,,,,
,,,,,1678422551300,,,,,,,,,,,,,,,,,,,,,,,,,,1883,18.50527778,-67.09666667,,,,,,,,,,18.50166667,-67.15638889,0,,,,,,,,,,,
,,,,,1678422551333,,,,,,,,,,,,,,,,,,,,,,,,,,1883,18.50527778,-67.09666667,,,,,,,,,,18.50166667,-67.15638889,0,,,,,,,,,,,
,,,,,1678422551367,,,,,,,,,,,,,,,,,,,,,,,,,,1883,18.50527778,-67.09666667,,,,,,,,,,18.50138889,-67.15611111,0,,,,,,,,,,,
,,,,,1678422551400,,,,,,,,,,,,,,,,,,,,,,,,,,1883,18.50527778,-67.09666667,,,,,,,,,,18.50138889,-67.15611111,0,,,,,,,,,,,
,,,,,1678422551433,,,,,,,,,,,,,,,,,,,,,,,,,,1883,18.50527778,-67.09666667,,,,,,,,,,18.50138889,-67.15611111,0,,,,,,,,,,,
,,,,,1678422551467,,,,,,,,,,,,,,,,,,,,,,,,,,1883,18.50527778,-67.09666667,,,,,,,,,,18.50138889,-67.15611111,0,,,,,,,,,,,
,,,,,1678422551500,,,,,,,,,,,,,,,,,,,,,,,,,,1883,18.50527778,-67.09666667,,,,,,,,,,18.50138889,-67.15611111,0,,,,,,,,,,,
,,,,,1678422551533,,,,,,,,,,,,,,,,,,,,,,,,,,1883,18.50527778,-67.09666667,,,,,,,,,,18.50138889,-67.15611111,0,,,,,,,,,,,
,,,,,1678422551567,,,,,,,,,,,,,,,,,,,,,,,,,,1884,18.50527778,-67.09666667,,,,,,,,,,18.50055556,-67.15555556,0,,,,,,,,,,,
,,,,,1678422551600,,,,,,,,,,,,,,,,,,,,,,,,,,1884,18.50555556,-67.09666667,,,,,,,,,,18.50055556,-67.15555556,0,,,,,,,,,,,
,,,,,1678422551633,,,,,,,,,,,,,,,,,,,,,,,,,,1884,18.50555556,-67.09666667,,,,,,,,,,18.50055556,-67.15555556,0,,,,,,,,,,,
,,,,,1678422551667,,,,,,,,,,,,,,,,,,,,,,,,,,1884,18.50555556,-67.09666667,,,,,,,,,,18.50055556,-67.15555556,0,,,,,,,,,,,
,,,,,1678422551700,,,,,,,,,,,,,,,,,,,,,,,,,,1884,18.50555556,-67.09666667,,,,,,,,,,18.50055556,-67.15555556,0,,,,,,,,,,,
,,,,,1678422551733,,,,,,,,,,,,,,,,,,,,,,,,,,1884,18.50555556,-67.09666667,,,,,,,,,,18.50055556,-67.15555556,0,,,,,,,,,,,
,,,,,1678422551767,,,,,,,,,,,,,,,,,,,,,,,,,,1884,18.50555556,-67.09666667,,,,,,,,,,18.50055556,-67.15555556,0,,,,,,,,,,,
,,,,,1678422551800,,,,,,,,,,,,,,,,,,,,,,,,,,1885,18.50555556,-67.09666667,,,,,,,,,,18.50055556,-67.15527778,0,,,,,,,,,,,
,,,,,1678422551833,,,,,,,,,,,,,,,,,,,,,,,,,,1885,18.50583333,-67.09666667,,,,,,,,,,18.5,-67.15527778,0,,,,,,,,,,,
,,,,,1678422551867,,,,,,,,,,,,,,,,,,,,,,,,,,1885,18.50583333,-67.09666667,,,,,,,,,,18.5,-67.15527778,0,,,,,,,,,,,
,,,,,1678422551900,,,,,,,,,,,,,,,,,,,,,,,,,,1885,18.50583333,-67.09666667,,,,,,,,,,18.5,-67.15527778,0,,,,,,,,,,,
,,,,,1678422551933,,,,,,,,,,,,,,,,,,,,,,,,,,1885,18.50583333,-67.09666667,,,,,,,,,,18.5,-67.15527778,0,,,,,,,,,,,
,,,,,1678422551967,,,,,,,,,,,,,,,,,,,,,,,,,,1885,18.50583333,-67.09666667,,,,,,,,,,18.5,-67.15527778,0,,,,,,,,,,,
,,,,,1678422552000,,,,,,,,,,,,,,,,,,,,,,,,,,1885,18.50583333,-67.09666667,,,,,,,,,,18.5,-67.15527778,0,,,,,,,,,,,
,,,,,1678422552033,,,,,,,,,,,,,,,,,,,,,,,,,,1886,18.50583333,-67.09666667,,,,,,,,,,18.5,-67.15555556,0,,,,,,,,,,,
,,,,,1678422552067,,,,,,,,,,,,,,,,,,,,,,,,,,1886,18.50583333,-67.09666667,,,,,,,,,,18.5,-67.15555556,0,,,,,,,,,,,
,,,,,1678422552100,,,,,,,,,,,,,,,,,,,,,,,,,,1886,18.50583333,-67.09666667,,,,,,,,,,18.5,-67.15555556,0,,,,,,,,,,,
,,,,,1678422552133,,,,,,,,,,,,,,,,,,,,,,,,,,1886,18.50583333,-67.09666667,,,,,,,,,,18.5,-67.15555556,0,,,,,,,,,,,
,,,,,1678422552167,,,,,,,,,,,,,,,,,,,,,,,,,,1886,18.50583333,-67.09666667,,,,,,,,,,18.5,-67.15555556,0,,,,,,,,,,,
,,,,,1678422552200,,,,,,,,,,,,,,,,,,,,,,,,,,1886,18.50583333,-67.09666667,,,,,,,,,,18.5,-67.15555556,0,,,,,,,,,,,
,,,,,1678422552233,,,,,,,,,,,,,,,,,,,,,,,,,,1886,18.50583333,-67.09666667,,,,,,,,,,18.51638889,-67.15583333,0,,,,,,,,,,,
,,,,,1678422552267,,,,,,,,,,,,,,,,,,,,,,,,,,1886,18.50611111,-67.09666667,,,,,,,,,,18.49972222,-67.15583333,0,,,,,,,,,,,
,,,,,1678422552300,,,,,,,,,,,,,,,,,,,,,,,,,,1886,18.50611111,-67.09666667,,,,,,,,,,18.49972222,-67.15583333,0,,,,,,,,,,,
,,,,,1678422552333,,,,,,,,,,,,,,,,,,,,,,,,,,1886,18.50611111,-67.09666667,,,,,,,,,,18.49972222,-67.15583333,0,,,,,,,,,,,
,,,,,1678422552367,,,,,,,,,,,,,,,,,,,,,,,,,,1886,18.50611111,-67.09666667,,,,,,,,,,18.49972222,-67.15583333,0,,,,,,,,,,,
,,,,,1678422552400,,,,,,,,,,,,,,,,,,,,,,,,,,1886,18.50611111,-67.09666667,,,,,,,,,,18.49972222,-67.15583333,0,,,,,,,,,,,
,,,,,1678422552433,,,,,,,,,,,,,,,,,,,,,,,,,,1887,18.50611111,-67.09666667,,,,,,,,,,18.49972222,-67.15666667,0,,,,,,,,,,,
,,,,,1678422552467,,,,,,,,,,,,,,,,,,,,,,,,,,1887,18.50611111,-67.09666667,,,,,,,,,,18.49972222,-67.15666667,0,,,,,,,,,,,
,,,,,1678422552500,,,,,,,,,,,,,,,,,,,,,,,,,,1887,18.50638889,-67.09666667,,,,,,,,,,18.49972222,-67.15666667,0,,,,,,,,,,,
,,,,,1678422552533,,,,,,,,,,,,,,,,,,,,,,,,,,1887,18.50638889,-67.09666667,,,,,,,,,,18.49972222,-67.15666667,0,,,,,,,,,,,
,,,,,1678422552567,,,,,,,,,,,,,,,,,,,,,,,,,,1887,18.50638889,-67.09666667,,,,,,,,,,18.49972222,-67.15666667,0,,,,,,,,,,,
,,,,,1678422552600,,,,,,,,,,,,,,,,,,,,,,,,,,1887,18.50638889,-67.09666667,,,,,,,,,,18.49972222,-67.15666667,0,,,,,,,,,,,
,,,,,1678422552633,,,,,,,,,,,,,,,,,,,,,,,,,,1887,18.50638889,-67.09666667,,,,,,,,,,18.49972222,-67.15666667,0,,,,,,,,,,,
,,,,,1678422552667,,,,,,,,,,,,,,,,,,,,,,,,,,1887,18.50638889,-67.09666667,,,,,,,,,,18.49944444,-67.15777778,0,,,,,,,,,,,
,,,,,1678422552700,,,,,,,,,,,,,,,,,,,,,,,,,,1887,18.50638889,-67.09666667,,,,,,,,,,18.49944444,-67.15777778,0,,,,,,,,,,,
,,,,,1678422552733,,,,,,,,,,,,,,,,,,,,,,,,,,1887,18.50638889,-67.09666667,,,,,,,,,,18.49944444,-67.15777778,0,,,,,,,,,,,
,,,,,1678422552767,,,,,,,,,,,,,,,,,,,,,,,,,,1887,18.50638889,-67.09666667,,,,,,,,,,18.49944444,-67.15777778,0,,,,,,,,,,,
,,,,,1678422552800,,,,,,,,,,,,,,,,,,,,,,,,,,1887,18.50638889,-67.09666667,,,,,,,,,,18.49944444,-67.15777778,0,,,,,,,,,,,
,,,,,1678422552833,,,,,,,,,,,,,,,,,,,,,,,,,,1887,18.50638889,-67.09666667,,,,,,,,,,18.49944444,-67.15777778,0,,,,,,,,,,,
,,,,,1678422552867,,,,,,,,,,,,,,,,,,,,,,,,,,1887,18.50638889,-67.09666667,,,,,,,,,,18.49944444,-67.15777778,0,,,,,,,,,,,
,,,,,1678422552900,,,,,,,,,,,,,,,,,,,,,,,,,,1887,18.50666667,-67.09666667,,,,,,,,,,18.49916667,-67.15833333,0,,,,,,,,,,,
,,,,,1678422552933,,,,,,,,,,,,,,,,,,,,,,,,,,1887,18.50666667,-67.09666667,,,,,,,,,,18.49916667,-67.15833333,0,,,,,,,,,,,
,,,,,1678422552967,,,,,,,,,,,,,,,,,,,,,,,,,,1887,18.50666667,-67.09666667,,,,,,,,,,18.49916667,-67.15833333,0,,,,,,,,,,,
,,,,,1678422553000,,,,,,,,,,,,,,,,,,,,,,,,,,1887,18.50666667,-67.09666667,,,,,,,,,,18.49916667,-67.15833333,0,,,,,,,,,,,
,,,,,1678422553033,,,,,,,,,,,,,,,,,,,,,,,,,,1887,18.50666667,-67.09666667,,,,,,,,,,18.49916667,-67.15833333,0,,,,,,,,,,,
,,,,,1678422553067,,,,,,,,,,,,,,,,,,,,,,,,,,1887,18.50666667,-67.09666667,,,,,,,,,,18.49916667,-67.15833333,0,,,,,,,,,,,
,,,,,1678422553100,,,,,,,,,,,,,,,,,,,,,,,,,,1888,18.50666667,-67.09666667,,,,,,,,,,18.49888889,-67.15833333,0,,,,,,,,,,,
,,,,,1678422553133,,,,,,,,,,,,,,,,,,,,,,,,,,1888,18.50694444,-67.09666667,,,,,,,,,,18.49888889,-67.15833333,0,,,,,,,,,,,
,,,,,1678422553167,,,,,,,,,,,,,,,,,,,,,,,,,,1888,18.50694444,-67.09666667,,,,,,,,,,18.49888889,-67.15833333,0,,,,,,,,,,,
,,,,,1678422553200,,,,,,,,,,,,,,,,,,,,,,,,,,1888,18.50694444,-67.09666667,,,,,,,,,,18.49888889,-67.15833333,0,,,,,,,,,,,
,,,,,1678422553233,,,,,,,,,,,,,,,,,,,,,,,,,,1888,18.50694444,-67.09666667,,,,,,,,,,18.49888889,-67.15833333,0,,,,,,,,,,,
,,,,,1678422553267,,,,,,,,,,,,,,,,,,,,,,,,,,1888,18.50694444,-67.09666667,,,,,,,,,,18.49888889,-67.15833333,0,,,,,,,,,,,
,,,,,1678422553300,,,,,,,,,,,,,,,,,,,,,,,,,,1888,18.50694444,-67.09666667,,,,,,,,,,18.49888889,-67.15805556,0,,,,,,,,,,,
,,,,,1678422553333,,,,,,,,,,,,,,,,,,,,,,,,,,1888,18.50694444,-67.09666667,,,,,,,,,,18.49861111,-67.15805556,0,,,,,,,,,,,
,,,,,1678422553367,,,,,,,,,,,,,,,,,,,,,,,,,,1888,18.50694444,-67.09666667,,,,,,,,,,18.49861111,-67.15805556,0,,,,,,,,,,,
,,,,,1678422553400,,,,,,,,,,,,,,,,,,,,,,,,,,1888,18.50694444,-67.09666667,,,,,,,,,,18.49861111,-67.15805556,0,,,,,,,,,,,
,,,,,1678422553433,,,,,,,,,,,,,,,,,,,,,,,,,,1888,18.50694444,-67.09666667,,,,,,,,,,18.49861111,-67.15805556,0,,,,,,,,,,,
,,,,,1678422553467,,,,,,,,,,,,,,,,,,,,,,,,,,1888,18.50694444,-67.09666667,,,,,,,,,,18.49861111,-67.15805556,0,,,,,,,,,,,
,,,,,1678422553500,,,,,,,,,,,,,,,,,,,,,,,,,,1888,18.50694444,-67.09666667,,,,,,,,,,18.49861111,-67.15805556,0,,,,,,,,,,,
,,,,,1678422553533,,,,,,,,,,,,,,,,,,,,,,,,,,1889,18.50694444,-67.09666667,,,,,,,,,,18.49805556,-67.15666667,0,,,,,,,,,,,
,,,,,1678422553567,,,,,,,,,,,,,,,,,,,,,,,,,,1889,18.50722222,-67.09666667,,,,,,,,,,18.49805556,-67.15666667,0,,,,,,,,,,,
,,,,,1678422553600,,,,,,,,,,,,,,,,,,,,,,,,,,1889,18.50722222,-67.09666667,,,,,,,,,,18.49805556,-67.15666667,0,,,,,,,,,,,
,,,,,1678422553633,,,,,,,,,,,,,,,,,,,,,,,,,,1889,18.50722222,-67.09666667,,,,,,,,,,18.49805556,-67.15666667,0,,,,,,,,,,,
,,,,,1678422553667,,,,,,,,,,,,,,,,,,,,,,,,,,1889,18.50722222,-67.09666667,,,,,,,,,,18.49805556,-67.15666667,0,,,,,,,,,,,
,,,,,1678422553700,,,,,,,,,,,,,,,,,,,,,,,,,,1889,18.50722222,-67.09666667,,,,,,,,,,18.49805556,-67.15666667,0,,,,,,,,,,,
,,,,,1678422553733,,,,,,,,,,,,,,,,,,,,,,,,,,1889,18.50722222,-67.09666667,,,,,,,,,,18.49777778,-67.15555556,0,,,,,,,,,,,
,,,,,1678422553767,,,,,,,,,,,,,,,,,,,,,,,,,,1889,18.5075,-67.09666667,,,,,,,,,,18.49777778,-67.15555556,0,,,,,,,,,,,
,,,,,1678422553800,,,,,,,,,,,,,,,,,,,,,,,,,,1889,18.5075,-67.09666667,,,,,,,,,,18.49777778,-67.15555556,0,,,,,,,,,,,
,,,,,1678422553833,,,,,,,,,,,,,,,,,,,,,,,,,,1889,18.5075,-67.09666667,,,,,,,,,,18.49777778,-67.15555556,0,,,,,,,,,,,
,,,,,1678422553867,,,,,,,,,,,,,,,,,,,,,,,,,,1889,18.5075,-67.09666667,,,,,,,,,,18.49777778,-67.15555556,0,,,,,,,,,,,
,,,,,1678422553900,,,,,,,,,,,,,,,,,,,,,,,,,,1889,18.5075,-67.09666667,,,,,,,,,,18.49777778,-67.15555556,0,,,,,,,,,,,
,,,,,1678422553933,,,,,,,,,,,,,,,,,,,,,,,,,,1890,18.5075,-67.09666667,,,,,,,,,,18.49777778,-67.15472222,0,,,,,,,,,,,
,,,,,1678422553967,,,,,,,,,,,,,,,,,,,,,,,,,,1890,18.5075,-67.09666667,,,,,,,,,,18.49777778,-67.15472222,0,,,,,,,,,,,
,,,,,1678422554000,,,,,,,,,,,,,,,,,,,,,,,,,,1890,18.5075,-67.09666667,,,,,,,,,,18.49777778,-67.15472222,0,,,,,,,,,,,
,,,,,1678422554033,,,,,,,,,,,,,,,,,,,,,,,,,,1890,18.5075,-67.09666667,,,,,,,,,,18.49777778,-67.15472222,0,,,,,,,,,,,
,,,,,1678422554067,,,,,,,,,,,,,,,,,,,,,,,,,,1890,18.5075,-67.09666667,,,,,,,,,,18.49777778,-67.15472222,0,,,,,,,,,,,
,,,,,1678422554100,,,,,,,,,,,,,,,,,,,,,,,,,,1890,18.5075,-67.09666667,,,,,,,,,,18.49777778,-67.15472222,0,,,,,,,,,,,
,,,,,1678422554133,,,,,,,,,,,,,,,,,,,,,,,,,,1890,18.5075,-67.09666667,,,,,,,,,,18.49777778,-67.15472222,0,,,,,,,,,,,
,,,,,1678422554167,,,,,,,,,,,,,,,,,,,,,,,,,,1891,18.5075,-67.09666667,,,,,,,,,,18.4975,-67.15444444,0,,,,,,,,,,,
,,,,,1678422554200,,,,,,,,,,,,,,,,,,,,,,,,,,1891,18.50777778,-67.09694444,,,,,,,,,,18.4975,-67.15444444,0,,,,,,,,,,,
,,,,,1678422554233,,,,,,,,,,,,,,,,,,,,,,,,,,1891,18.50777778,-67.09694444,,,,,,,,,,18.4975,-67.15444444,0,,,,,,,,,,,
,,,,,1678422554267,,,,,,,,,,,,,,,,,,,,,,,,,,1891,18.50777778,-67.09694444,,,,,,,,,,18.4975,-67.15444444,0,,,,,,,,,,,
,,,,,1678422554300,,,,,,,,,,,,,,,,,,,,,,,,,,1891,18.50777778,-67.09694444,,,,,,,,,,18.4975,-67.15444444,0,,,,,,,,,,,
,,,,,1678422554333,,,,,,,,,,,,,,,,,,,,,,,,,,1891,18.50777778,-67.09694444,,,,,,,,,,18.4975,-67.15444444,0,,,,,,,,,,,
,,,,,1678422554367,,,,,,,,,,,,,,,,,,,,,,,,,,1892,18.50777778,-67.09694444,,,,,,,,,,18.4975,-67.15444444,0,,,,,,,,,,,
,,,,,1678422554400,,,,,,,,,,,,,,,,,,,,,,,,,,1892,18.50777778,-67.09694444,,,,,,,,,,18.4975,-67.15444444,0,,,,,,,,,,,
,,,,,1678422554433,,,,,,,,,,,,,,,,,,,,,,,,,,1892,18.50805556,-67.09694444,,,,,,,,,,18.4975,-67.15444444,0,,,,,,,,,,,
,,,,,1678422554467,,,,,,,,,,,,,,,,,,,,,,,,,,1892,18.50805556,-67.09694444,,,,,,,,,,18.4975,-67.15444444,0,,,,,,,,,,,
,,,,,1678422554500,,,,,,,,,,,,,,,,,,,,,,,,,,1892,18.50805556,-67.09694444,,,,,,,,,,18.4975,-67.15444444,0,,,,,,,,,,,
,,,,,1678422554533,,,,,,,,,,,,,,,,,,,,,,,,,,1892,18.50805556,-67.09694444,,,,,,,,,,18.4975,-67.15444444,0,,,,,,,,,,,
,,,,,1678422554567,,,,,,,,,,,,,,,,,,,,,,,,,,1892,18.50805556,-67.09694444,,,,,,,,,,18.4975,-67.15444444,0,,,,,,,,,,,
,,,,,1678422554600,,,,,,,,,,,,,,,,,,,,,,,,,,1892,18.50805556,-67.09694444,,,,,,,,,,18.4975,-67.15444444,0,,,,,,,,,,,
,,,,,1678422554633,,,,,,,,,,,,,,,,,,,,,,,,,,1892,18.50805556,-67.09694444,,,,,,,,,,18.4975,-67.15444444,0,,,,,,,,,,,
,,,,,1678422554667,,,,,,,,,,,,,,,,,,,,,,,,,,1892,18.50805556,-67.09694444,,,,,,,,,,18.4975,-67.15444444,0,,,,,,,,,,,
,,,,,1678422554700,,,,,,,,,,,,,,,,,,,,,,,,,,1892,18.50805556,-67.09694444,,,,,,,,,,18.4975,-67.15444444,0,,,,,,,,,,,
,,,,,1678422554733,,,,,,,,,,,,,,,,,,,,,,,,,,1892,18.50805556,-67.09694444,,,,,,,,,,18.4975,-67.15444444,0,,,,,,,,,,,
,,,,,1678422554767,,,,,,,,,,,,,,,,,,,,,,,,,,1892,18.50805556,-67.09694444,,,,,,,,,,18.4975,-67.15444444,0,,,,,,,,,,,
,,,,,1678422554800,,,,,,,,,,,,,,,,,,,,,,,,,,1892,18.50805556,-67.09694444,,,,,,,,,,18.49722222,-67.15444444,0,,,,,,,,,,,
,,,,,1678422554833,,,,,,,,,,,,,,,,,,,,,,,,,,1892,18.50833333,-67.09694444,,,,,,,,,,18.49722222,-67.15444444,0,,,,,,,,,,,
,,,,,1678422554867,,,,,,,,,,,,,,,,,,,,,,,,,,1892,18.50833333,-67.09694444,,,,,,,,,,18.49722222,-67.15444444,0,,,,,,,,,,,
,,,,,1678422554900,,,,,,,,,,,,,,,,,,,,,,,,,,1892,18.50833333,-67.09694444,,,,,,,,,,18.49722222,-67.15444444,0,,,,,,,,,,,
,,,,,1678422554933,,,,,,,,,,,,,,,,,,,,,,,,,,1892,18.50833333,-67.09694444,,,,,,,,,,18.49722222,-67.15444444,0,,,,,,,,,,,
,,,,,1678422554967,,,,,,,,,,,,,,,,,,,,,,,,,,1892,18.50833333,-67.09694444,,,,,,,,,,18.49722222,-67.15444444,0,,,,,,,,,,,
,,,,,1678422555000,,,,,,,,,,,,,,,,,,,,,,,,,,1892,18.50833333,-67.09694444,,,,,,,,,,18.49722222,-67.15444444,0,,,,,,,,,,,
,,,,,1678422555033,,,,,,,,,,,,,,,,,,,,,,,,,,1893,18.50833333,-67.09694444,,,,,,,,,,18.49722222,-67.15444444,0,,,,,,,,,,,
,,,,,1678422555067,,,,,,,,,,,,,,,,,,,,,,,,,,1893,18.50861111,-67.09694444,,,,,,,,,,18.49722222,-67.15444444,0,,,,,,,,,,,
,,,,,1678422555100,,,,,,,,,,,,,,,,,,,,,,,,,,1893,18.50861111,-67.09694444,,,,,,,,,,18.49722222,-67.15444444,0,,,,,,,,,,,
,,,,,1678422555133,,,,,,,,,,,,,,,,,,,,,,,,,,1893,18.50861111,-67.09694444,,,,,,,,,,18.49722222,-67.15444444,0,,,,,,,,,,,
,,,,,1678422555167,,,,,,,,,,,,,,,,,,,,,,,,,,1893,18.50861111,-67.09694444,,,,,,,,,,18.49722222,-67.15444444,0,,,,,,,,,,,
,,,,,1678422555200,,,,,,,,,,,,,,,,,,,,,,,,,,1893,18.50861111,-67.09694444,,,,,,,,,,18.49722222,-67.15444444,0,,,,,,,,,,,
,,,,,1678422555233,,,,,,,,,,,,,,,,,,,,,,,,,,1893,18.50861111,-67.09694444,,,,,,,,,,18.49694444,-67.15444444,0,,,,,,,,,,,
,,,,,1678422555267,,,,,,,,,,,,,,,,,,,,,,,,,,1894,18.50861111,-67.09694444,,,,,,,,,,18.49694444,-67.15444444,0,,,,,,,,,,,
,,,,,1678422555300,,,,,,,,,,,,,,,,,,,,,,,,,,1894,18.50861111,-67.09694444,,,,,,,,,,18.49694444,-67.15444444,0,,,,,,,,,,,
,,,,,1678422555333,,,,,,,,,,,,,,,,,,,,,,,,,,1894,18.50861111,-67.09694444,,,,,,,,,,18.49694444,-67.15444444,0,,,,,,,,,,,
,,,,,1678422555367,,,,,,,,,,,,,,,,,,,,,,,,,,1894,18.50861111,-67.09694444,,,,,,,,,,18.49694444,-67.15444444,0,,,,,,,,,,,
,,,,,1678422555400,,,,,,,,,,,,,,,,,,,,,,,,,,1894,18.50861111,-67.09694444,,,,,,,,,,18.49694444,-67.15444444,0,,,,,,,,,,,
,,,,,1678422555433,,,,,,,,,,,,,,,,,,,,,,,,,,1894,18.50861111,-67.09694444,,,,,,,,,,18.49666667,-67.15472222,0,,,,,,,,,,,
,,,,,1678422555467,,,,,,,,,,,,,,,,,,,,,,,,,,1894,18.50888889,-67.09694444,,,,,,,,,,18.49666667,-67.15472222,3,,,,,,,,,,,
,,,,,1678422555500,,,,,,,,,,,,,,,,,,,,,,,,,,1894,18.50888889,-67.09694444,,,,,,,,,,18.49666667,-67.15472222,3,,,,,,,,,,,
,,,,,1678422555533,,,,,,,,,,,,,,,,,,,,,,,,,,1894,18.50888889,-67.09694444,,,,,,,,,,18.49666667,-67.15472222,3,,,,,,,,,,,
,,,,,1678422555567,,,,,,,,,,,,,,,,,,,,,,,,,,1894,18.50888889,-67.09694444,,,,,,,,,,18.49666667,-67.15472222,3,,,,,,,,,,,
,,,,,1678422555600,,,,,,,,,,,,,,,,,,,,,,,,,,1894,18.50888889,-67.09694444,,,,,,,,,,18.49666667,-67.15472222,3,,,,,,,,,,,
,,,,,1678422555633,,,,,,,,,,,,,,,,,,,,,,,,,,1894,18.50888889,-67.09694444,,,,,,,,,,18.49666667,-67.15472222,3,,,,,,,,,,,
,,,,,1678422555667,,,,,,,,,,,,,,,,,,,,,,,,,,1895,18.50888889,-67.09694444,,,,,,,,,,18.49638889,-67.15472222,3,,,,,,,,,,,
,,,,,1678422555700,,,,,,,,,,,,,,,,,,,,,,,,,,1895,18.50916667,-67.09722222,,,,,,,,,,18.49638889,-67.15472222,3,,,,,,,,,,,
,,,,,1678422555733,,,,,,,,,,,,,,,,,,,,,,,,,,1895,18.50916667,-67.09722222,,,,,,,,,,18.49638889,-67.15472222,3,,,,,,,,,,,
,,,,,1678422555767,,,,,,,,,,,,,,,,,,,,,,,,,,1895,18.50916667,-67.09722222,,,,,,,,,,18.49638889,-67.15472222,3,,,,,,,,,,,
,,,,,1678422555800,,,,,,,,,,,,,,,,,,,,,,,,,,1895,18.50916667,-67.09722222,,,,,,,,,,18.49638889,-67.15472222,3,,,,,,,,,,,
,,,,,1678422555833,,,,,,,,,,,,,,,,,,,,,,,,,,1895,18.50916667,-67.09722222,,,,,,,,,,18.49638889,-67.15472222,3,,,,,,,,,,,
,,,,,1678422555867,,,,,,,,,,,,,,,,,,,,,,,,,,1895,18.50916667,-67.09722222,,,,,,,,,,18.49638889,-67.15472222,3,,,,,,,,,,,
,,,,,1678422555900,,,,,,,,,,,,,,,,,,,,,,,,,,1895,18.50916667,-67.09722222,,,,,,,,,,18.49638889,-67.15472222,3,,,,,,,,,,,
,,,,,1678422555933,,,,,,,,,,,,,,,,,,,,,,,,,,1895,18.50916667,-67.09722222,,,,,,,,,,18.49638889,-67.15472222,3,,,,,,,,,,,
,,,,,1678422555967,,,,,,,,,,,,,,,,,,,,,,,,,,1895,18.50916667,-67.09722222,,,,,,,,,,18.49638889,-67.15472222,3,,,,,,,,,,,
,,,,,1678422556000,,,,,,,,,,,,,,,,,,,,,,,,,,1895,18.50916667,-67.09722222,,,,,,,,,,18.49638889,-67.15472222,3,,,,,,,,,,,
,,,,,1678422556033,,,,,,,,,,,,,,,,,,,,,,,,,,1895,18.50916667,-67.09722222,,,,,,,,,,18.49638889,-67.15472222,3,,,,,,,,,,,
,,,,,1678422556067,,,,,,,,,,,,,,,,,,,,,,,,,,1895,18.50916667,-67.09722222,,,,,,,,,,18.49638889,-67.15472222,3,,,,,,,,,,,
,,,,,1678422556100,,,,,,,,,,,,,,,,,,,,,,,,,,1896,18.50916667,-67.09722222,,,,,,,,,,18.49611111,-67.15472222,3,,,,,,,,,,,
,,,,,1678422556133,,,,,,,,,,,,,,,,,,,,,,,,,,1896,18.50944444,-67.09722222,,,,,,,,,,18.49611111,-67.15472222,3,,,,,,,,,,,
,,,,,1678422556167,,,,,,,,,,,,,,,,,,,,,,,,,,1896,18.50944444,-67.09722222,,,,,,,,,,18.49611111,-67.15472222,3,,,,,,,,,,,
,,,,,1678422556200,,,,,,,,,,,,,,,,,,,,,,,,,,1896,18.50944444,-67.09722222,,,,,,,,,,18.49611111,-67.15472222,3,,,,,,,,,,,
,,,,,1678422556233,,,,,,,,,,,,,,,,,,,,,,,,,,1896,18.50944444,-67.09722222,,,,,,,,,,18.49611111,-67.15472222,3,,,,,,,,,,,
,,,,,1678422556267,,,,,,,,,,,,,,,,,,,,,,,,,,1896,18.50944444,-67.09722222,,,,,,,,,,18.49611111,-67.15472222,3,,,,,,,,,,,
,,,,,1678422556300,,,,,,,,,,,,,,,,,,,,,,,,,,1896,18.50944444,-67.09722222,,,,,,,,,,18.49611111,-67.15472222,3,,,,,,,,,,,
,,,,,1678422556333,,,,,,,,,,,,,,,,,,,,,,,,,,1896,18.50944444,-67.09722222,,,,,,,,,,18.49611111,-67.15472222,3,,,,,,,,,,,
,,,,,1678422556367,,,,,,,,,,,,,,,,,,,,,,,,,,1896,18.50944444,-67.09722222,,,,,,,,,,18.49611111,-67.15472222,3,,,,,,,,,,,
,,,,,1678422556400,,,,,,,,,,,,,,,,,,,,,,,,,,1896,18.50944444,-67.09722222,,,,,,,,,,18.49611111,-67.15472222,3,,,,,,,,,,,
,,,,,1678422556433,,,,,,,,,,,,,,,,,,,,,,,,,,1896,18.50944444,-67.09722222,,,,,,,,,,18.49611111,-67.15472222,3,,,,,,,,,,,
,,,,,1678422556467,,,,,,,,,,,,,,,,,,,,,,,,,,1896,18.50944444,-67.09722222,,,,,,,,,,18.49611111,-67.15472222,3,,,,,,,,,,,
,,,,,1678422556500,,,,,,,,,,,,,,,,,,,,,,,,,,1896,18.50944444,-67.09722222,,,,,,,,,,18.49611111,-67.15472222,3,,,,,,,,,,,
,,,,,1678422556533,,,,,,,,,,,,,,,,,,,,,,,,,,1897,18.50972222,-67.09722222,,,,,,,,,,18.49611111,-67.155,3,,,,,,,,,,,
,,,,,1678422556567,,,,,,,,,,,,,,,,,,,,,,,,,,1897,18.50972222,-67.09722222,,,,,,,,,,18.49611111,-67.155,3,,,,,,,,,,,
,,,,,1678422556600,,,,,,,,,,,,,,,,,,,,,,,,,,1897,18.50972222,-67.09722222,,,,,,,,,,18.49611111,-67.155,3,,,,,,,,,,,
,,,,,1678422556633,,,,,,,,,,,,,,,,,,,,,,,,,,1897,18.50972222,-67.09722222,,,,,,,,,,18.49611111,-67.155,3,,,,,,,,,,,
,,,,,1678422556667,,,,,,,,,,,,,,,,,,,,,,,,,,1897,18.50972222,-67.09722222,,,,,,,,,,18.49611111,-67.155,3,,,,,,,,,,,
,,,,,1678422556700,,,,,,,,,,,,,,,,,,,,,,,,,,1897,18.50972222,-67.09722222,,,,,,,,,,18.49611111,-67.155,3,,,,,,,,,,,
,,,,,1678422556733,,,,,,,,,,,,,,,,,,,,,,,,,,1897,18.50972222,-67.09722222,,,,,,,,,,18.49555556,-67.155,3,,,,,,,,,,,
,,,,,1678422556767,,,,,,,,,,,,,,,,,,,,,,,,,,1897,18.51,-67.0975,,,,,,,,,,18.49555556,-67.155,3,,,,,,,,,,,
,,,,,1678422556800,,,,,,,,,,,,,,,,,,,,,,,,,,1897,18.51,-67.0975,,,,,,,,,,18.49555556,-67.155,3,,,,,,,,,,,
,,,,,1678422556833,,,,,,,,,,,,,,,,,,,,,,,,,,1897,18.51,-67.0975,,,,,,,,,,18.49555556,-67.155,3,,,,,,,,,,,
,,,,,1678422556867,,,,,,,,,,,,,,,,,,,,,,,,,,1897,18.51,-67.0975,,,,,,,,,,18.49555556,-67.155,3,,,,,,,,,,,
,,,,,1678422556900,,,,,,,,,,,,,,,,,,,,,,,,,,1897,18.51,-67.0975,,,,,,,,,,18.49555556,-67.155,3,,,,,,,,,,,
,,,,,1678422556933,,,,,,,,,,,,,,,,,,,,,,,,,,1897,18.51,-67.0975,,,,,,,,,,18.495,-67.155,3,,,,,,,,,,,
,,,,,1678422556967,,,,,,,,,,,,,,,,,,,,,,,,,,1898,18.51,-67.0975,,,,,,,,,,18.495,-67.155,3,,,,,,,,,,,
,,,,,1678422557000,,,,,,,,,,,,,,,,,,,,,,,,,,1898,18.51,-67.0975,,,,,,,,,,18.495,-67.155,3,,,,,,,,,,,
,,,,,1678422557033,,,,,,,,,,,,,,,,,,,,,,,,,,1898,18.51,-67.0975,,,,,,,,,,18.495,-67.155,3,,,,,,,,,,,
,,,,,1678422557067,,,,,,,,,,,,,,,,,,,,,,,,,,1898,18.51,-67.0975,,,,,,,,,,18.495,-67.155,3,,,,,,,,,,,
,,,,,1678422557100,,,,,,,,,,,,,,,,,,,,,,,,,,1898,18.51,-67.0975,,,,,,,,,,18.495,-67.155,3,,,,,,,,,,,
,,,,,1678422557133,,,,,,,,,,,,,,,,,,,,,,,,,,1898,18.51,-67.0975,,,,,,,,,,18.495,-67.155,3,,,,,,,,,,,
,,,,,1678422557167,,,,,,,,,,,,,,,,,,,,,,,,,,1899,18.51,-67.0975,,,,,,,,,,18.49416667,-67.15611111,3,,,,,,,,,,,
,,,,,1678422557200,,,,,,,,,,,,,,,,,,,,,,,,,,1899,18.51027778,-67.0975,,,,,,,,,,18.49416667,-67.15611111,3,,,,,,,,,,,
,,,,,1678422557233,,,,,,,,,,,,,,,,,,,,,,,,,,1899,18.51027778,-67.0975,,,,,,,,,,18.49416667,-67.15611111,3,,,,,,,,,,,
,,,,,1678422557267,,,,,,,,,,,,,,,,,,,,,,,,,,1899,18.51027778,-67.0975,,,,,,,,,,18.49416667,-67.15611111,3,,,,,,,,,,,
,,,,,1678422557300,,,,,,,,,,,,,,,,,,,,,,,,,,1899,18.51027778,-67.0975,,,,,,,,,,18.49416667,-67.15611111,3,,,,,,,,,,,
,,,,,1678422557333,,,,,,,,,,,,,,,,,,,,,,,,,,1899,18.51027778,-67.0975,,,,,,,,,,18.49416667,-67.15611111,3,,,,,,,,,,,
,,,,,1678422557367,,,,,,,,,,,,,,,,,,,,,,,,,,1899,18.51027778,-67.0975,,,,,,,,,,18.49416667,-67.15611111,3,,,,,,,,,,,
,,,,,1678422557400,,,,,,,,,,,,,,,,,,,,,,,,,,1899,18.51027778,-67.0975,,,,,,,,,,18.49361111,-67.15638889,3,,,,,,,,,,,
,,,,,1678422557433,,,,,,,,,,,,,,,,,,,,,,,,,,1899,18.51055556,-67.0975,,,,,,,,,,18.49361111,-67.15638889,3,,,,,,,,,,,
,,,,,1678422557467,,,,,,,,,,,,,,,,,,,,,,,,,,1899,18.51055556,-67.0975,,,,,,,,,,18.49361111,-67.15638889,3,,,,,,,,,,,
,,,,,1678422557500,,,,,,,,,,,,,,,,,,,,,,,,,,1899,18.51055556,-67.0975,,,,,,,,,,18.49361111,-67.15638889,3,,,,,,,,,,,
,,,,,1678422557533,,,,,,,,,,,,,,,,,,,,,,,,,,1899,18.51055556,-67.0975,,,,,,,,,,18.49361111,-67.15638889,3,,,,,,,,,,,
,,,,,1678422557567,,,,,,,,,,,,,,,,,,,,,,,,,,1899,18.51055556,-67.0975,,,,,,,,,,18.49361111,-67.15638889,3,,,,,,,,,,,
,,,,,1678422557600,,,,,,,,,,,,,,,,,,,,,,,,,,1900,18.51055556,-67.0975,,,,,,,,,,18.49361111,-67.15638889,3,,,,,,,,,,,
,,,,,1678422557633,,,,,,,,,,,,,,,,,,,,,,,,,,1900,18.51055556,-67.09777778,,,,,,,,,,18.49361111,-67.15638889,3,,,,,,,,,,,
,,,,,1678422557667,,,,,,,,,,,,,,,,,,,,,,,,,,1900,18.51055556,-67.09777778,,,,,,,,,,18.49361111,-67.15638889,3,,,,,,,,,,,
,,,,,1678422557700,,,,,,,,,,,,,,,,,,,,,,,,,,1900,18.51055556,-67.09777778,,,,,,,,,,18.49361111,-67.15638889,3,,,,,,,,,,,
,,,,,1678422557733,,,,,,,,,,,,,,,,,,,,,,,,,,1900,18.51055556,-67.09777778,,,,,,,,,,18.49361111,-67.15638889,3,,,,,,,,,,,
,,,,,1678422557767,,,,,,,,,,,,,,,,,,,,,,,,,,1900,18.51055556,-67.09777778,,,,,,,,,,18.49361111,-67.15638889,3,,,,,,,,,,,
,,,,,1678422557800,,,,,,,,,,,,,,,,,,,,,,,,,,1900,18.51055556,-67.09777778,,,,,,,,,,18.49361111,-67.15638889,3,,,,,,,,,,,
,,,,,1678422557833,,,,,,,,,,,,,,,,,,,,,,,,,,1900,18.51055556,-67.09777778,,,,,,,,,,18.49361111,-67.15638889,3,,,,,,,,,,,
,,,,,1678422557867,,,,,,,,,,,,,,,,,,,,,,,,,,1900,18.51083333,-67.09777778,,,,,,,,,,18.49361111,-67.15638889,3,,,,,,,,,,,
,,,,,1678422557900,,,,,,,,,,,,,,,,,,,,,,,,,,1900,18.51083333,-67.09777778,,,,,,,,,,18.49361111,-67.15638889,3,,,,,,,,,,,
,,,,,1678422557933,,,,,,,,,,,,,,,,,,,,,,,,,,1900,18.51083333,-67.09777778,,,,,,,,,,18.49361111,-67.15638889,3,,,,,,,,,,,
,,,,,1678422557967,,,,,,,,,,,,,,,,,,,,,,,,,,1900,18.51083333,-67.09777778,,,,,,,,,,18.49361111,-67.15638889,3,,,,,,,,,,,
,,,,,1678422558000,,,,,,,,,,,,,,,,,,,,,,,,,,1900,18.51083333,-67.09777778,,,,,,,,,,18.49361111,-67.15638889,3,,,,,,,,,,,
,,,,,1678422558033,,,,,,,,,,,,,,,,,,,,,,,,,,1899,18.51111111,-67.09777778,,,,,,,,,,18.49388889,-67.15555556,3,,,,,,,,,,,
,,,,,1678422558067,,,,,,,,,,,,,,,,,,,,,,,,,,1900,18.51111111,-67.09777778,,,,,,,,,,18.49388889,-67.15555556,3,,,,,,,,,,,
,,,,,1678422558100,,,,,,,,,,,,,,,,,,,,,,,,,,1900,18.51111111,-67.09777778,,,,,,,,,,18.49388889,-67.15555556,3,,,,,,,,,,,
,,,,,1678422558133,,,,,,,,,,,,,,,,,,,,,,,,,,1900,18.51111111,-67.09777778,,,,,,,,,,18.49388889,-67.15555556,3,,,,,,,,,,,
,,,,,1678422558167,,,,,,,,,,,,,,,,,,,,,,,,,,1900,18.51111111,-67.09777778,,,,,,,,,,18.49388889,-67.15555556,3,,,,,,,,,,,
,,,,,1678422558200,,,,,,,,,,,,,,,,,,,,,,,,,,1900,18.51111111,-67.09777778,,,,,,,,,,18.49388889,-67.15555556,3,,,,,,,,,,,
,,,,,1678422558233,,,,,,,,,,,,,,,,,,,,,,,,,,1901,18.51111111,-67.09777778,,,,,,,,,,18.49444444,-67.15388889,3,,,,,,,,,,,
,,,,,1678422558267,,,,,,,,,,,,,,,,,,,,,,,,,,1901,18.51111111,-67.09777778,,,,,,,,,,18.49444444,-67.15388889,3,,,,,,,,,,,
,,,,,1678422558300,,,,,,,,,,,,,,,,,,,,,,,,,,1901,18.51111111,-67.09777778,,,,,,,,,,18.49444444,-67.15388889,3,,,,,,,,,,,
,,,,,1678422558333,,,,,,,,,,,,,,,,,,,,,,,,,,1901,18.51111111,-67.09777778,,,,,,,,,,18.49444444,-67.15388889,3,,,,,,,,,,,
,,,,,1678422558367,,,,,,,,,,,,,,,,,,,,,,,,,,1901,18.51111111,-67.09777778,,,,,,,,,,18.49444444,-67.15388889,3,,,,,,,,,,,
,,,,,1678422558400,,,,,,,,,,,,,,,,,,,,,,,,,,1902,18.51111111,-67.09777778,,,,,,,,,,18.49444444,-67.15388889,3,,,,,,,,,,,
,,,,,1678422558433,,,,,,,,,,,,,,,,,,,,,,,,,,1902,18.51111111,-67.09777778,,,,,,,,,,18.49444444,-67.1525,3,,,,,,,,,,,
,,,,,1678422558467,,,,,,,,,,,,,,,,,,,,,,,,,,1902,18.51138889,-67.09777778,,,,,,,,,,18.49472222,-67.1525,3,,,,,,,,,,,
,,,,,1678422558500,,,,,,,,,,,,,,,,,,,,,,,,,,1902,18.51138889,-67.09805556,,,,,,,,,,18.49472222,-67.1525,3,,,,,,,,,,,
,,,,,1678422558533,,,,,,,,,,,,,,,,,,,,,,,,,,1902,18.51138889,-67.09805556,,,,,,,,,,18.49472222,-67.1525,3,,,,,,,,,,,
,,,,,1678422558567,,,,,,,,,,,,,,,,,,,,,,,,,,1902,18.51138889,-67.09805556,,,,,,,,,,18.49472222,-67.1525,3,,,,,,,,,,,
,,,,,1678422558600,,,,,,,,,,,,,,,,,,,,,,,,,,1902,18.51138889,-67.09805556,,,,,,,,,,18.49472222,-67.1525,3,,,,,,,,,,,
,,,,,1678422558633,,,,,,,,,,,,,,,,,,,,,,,,,,1902,18.51138889,-67.09805556,,,,,,,,,,18.49472222,-67.1525,3,,,,,,,,,,,
,,,,,1678422558667,,,,,,,,,,,,,,,,,,,,,,,,,,1902,18.51138889,-67.09805556,,,,,,,,,,18.49472222,-67.15194444,3,,,,,,,,,,,
,,,,,1678422558700,,,,,,,,,,,,,,,,,,,,,,,,,,1902,18.51166667,-67.09805556,,,,,,,,,,18.49472222,-67.15194444,3,,,,,,,,,,,
,,,,,1678422558733,,,,,,,,,,,,,,,,,,,,,,,,,,1902,18.51166667,-67.09805556,,,,,,,,,,18.49472222,-67.15194444,3,,,,,,,,,,,
,,,,,1678422558767,,,,,,,,,,,,,,,,,,,,,,,,,,1902,18.51166667,-67.09805556,,,,,,,,,,18.49472222,-67.15194444,3,,,,,,,,,,,
,,,,,1678422558800,,,,,,,,,,,,,,,,,,,,,,,,,,1902,18.51166667,-67.09805556,,,,,,,,,,18.49472222,-67.15194444,3,,,,,,,,,,,
,,,,,1678422558833,,,,,,,,,,,,,,,,,,,,,,,,,,1902,18.51166667,-67.09805556,,,,,,,,,,18.49472222,-67.15194444,3,,,,,,,,,,,
,,,,,1678422558867,,,,,,,,,,,,,,,,,,,,,,,,,,1902,18.51166667,-67.09805556,,,,,,,,,,18.49472222,-67.15138889,3,,,,,,,,,,,
,,,,,1678422558900,,,,,,,,,,,,,,,,,,,,,,,,,,1902,18.51166667,-67.09805556,,,,,,,,,,18.49444444,-67.15138889,3,,,,,,,,,,,
,,,,,1678422558933,,,,,,,,,,,,,,,,,,,,,,,,,,1902,18.51166667,-67.09805556,,,,,,,,,,18.49444444,-67.15138889,3,,,,,,,,,,,
,,,,,1678422558967,,,,,,,,,,,,,,,,,,,,,,,,,,1902,18.51166667,-67.09805556,,,,,,,,,,18.49444444,-67.15138889,3,,,,,,,,,,,
,,,,,1678422559000,,,,,,,,,,,,,,,,,,,,,,,,,,1902,18.51166667,-67.09805556,,,,,,,,,,18.49444444,-67.15138889,3,,,,,,,,,,,
,,,,,1678422559033,,,,,,,,,,,,,,,,,,,,,,,,,,1902,18.51166667,-67.09805556,,,,,,,,,,18.49444444,-67.15138889,3,,,,,,,,,,,
,,,,,1678422559067,,,,,,,,,,,,,,,,,,,,,,,,,,1902,18.51166667,-67.09805556,,,,,,,,,,18.49444444,-67.15138889,3,,,,,,,,,,,
,,,,,1678422559100,,,,,,,,,,,,,,,,,,,,,,,,,,1902,18.51166667,-67.09805556,,,,,,,,,,18.49416667,-67.15166667,3,,,,,,,,,,,
,,,,,1678422559133,,,,,,,,,,,,,,,,,,,,,,,,,,1902,18.51194444,-67.09805556,,,,,,,,,,18.49416667,-67.15166667,3,,,,,,,,,,,
,,,,,1678422559167,,,,,,,,,,,,,,,,,,,,,,,,,,1902,18.51194444,-67.09805556,,,,,,,,,,18.49416667,-67.15166667,3,,,,,,,,,,,
,,,,,1678422559200,,,,,,,,,,,,,,,,,,,,,,,,,,1902,18.51194444,-67.09805556,,,,,,,,,,18.49416667,-67.15166667,3,,,,,,,,,,,
,,,,,1678422559233,,,,,,,,,,,,,,,,,,,,,,,,,,1902,18.51194444,-67.09805556,,,,,,,,,,18.49416667,-67.15166667,3,,,,,,,,,,,
,,,,,1678422559267,,,,,,,,,,,,,,,,,,,,,,,,,,1902,18.51194444,-67.09805556,,,,,,,,,,18.49416667,-67.15166667,3,,,,,,,,,,,
,,,,,1678422559300,,,,,,,,,,,,,,,,,,,,,,,,,,1903,18.51194444,-67.09805556,,,,,,,,,,18.49416667,-67.14638889,194,,,,,,,,,,,
,,,,,1678422559333,,,,,,,,,,,,,,,,,,,,,,,,,,1903,18.51194444,-67.09833333,,,,,,,,,,18.49555556,-67.14638889,194,,,,,,,,,,,
,,,,,1678422559367,,,,,,,,,,,,,,,,,,,,,,,,,,1903,18.51194444,-67.09833333,,,,,,,,,,18.49555556,-67.14638889,194,,,,,,,,,,,
,,,,,1678422559400,,,,,,,,,,,,,,,,,,,,,,,,,,1903,18.51194444,-67.09833333,,,,,,,,,,18.49555556,-67.14638889,194,,,,,,,,,,,
,,,,,1678422559433,,,,,,,,,,,,,,,,,,,,,,,,,,1903,18.51194444,-67.09833333,,,,,,,,,,18.49555556,-67.14638889,194,,,,,,,,,,,
,,,,,1678422559467,,,,,,,,,,,,,,,,,,,,,,,,,,1903,18.51194444,-67.09833333,,,,,,,,,,18.49555556,-67.14638889,194,,,,,,,,,,,
,,,,,1678422559500,,,,,,,,,,,,,,,,,,,,,,,,,,1903,18.51194444,-67.09833333,,,,,,,,,,18.49555556,-67.14666667,194,,,,,,,,,,,
,,,,,1678422559533,,,,,,,,,,,,,,,,,,,,,,,,,,1903,18.51222222,-67.09833333,,,,,,,,,,18.49555556,-67.14666667,194,,,,,,,,,,,
,,,,,1678422559567,,,,,,,,,,,,,,,,,,,,,,,,,,1903,18.51222222,-67.09833333,,,,,,,,,,18.49555556,-67.14666667,194,,,,,,,,,,,
,,,,,1678422559600,,,,,,,,,,,,,,,,,,,,,,,,,,1903,18.51222222,-67.09833333,,,,,,,,,,18.49555556,-67.14666667,194,,,,,,,,,,,
,,,,,1678422559633,,,,,,,,,,,,,,,,,,,,,,,,,,1903,18.51222222,-67.09833333,,,,,,,,,,18.49555556,-67.14666667,194,,,,,,,,,,,
,,,,,1678422559667,,,,,,,,,,,,,,,,,,,,,,,,,,1903,18.51222222,-67.09833333,,,,,,,,,,18.49555556,-67.14666667,194,,,,,,,,,,,
,,,,,1678422559700,,,,,,,,,,,,,,,,,,,,,,,,,,1903,18.51222222,-67.09833333,,,,,,,,,,18.49555556,-67.14666667,194,,,,,,,,,,,
,,,,,1678422559733,,,,,,,,,,,,,,,,,,,,,,,,,,1903,18.51222222,-67.09833333,,,,,,,,,,18.49555556,-67.14722222,194,,,,,,,,,,,
,,,,,1678422559767,,,,,,,,,,,,,,,,,,,,,,,,,,1903,18.5125,-67.09833333,,,,,,,,,,18.49527778,-67.14722222,194,,,,,,,,,,,
,,,,,1678422559800,,,,,,,,,,,,,,,,,,,,,,,,,,1903,18.5125,-67.09833333,,,,,,,,,,18.49527778,-67.14722222,194,,,,,,,,,,,
,,,,,1678422559833,,,,,,,,,,,,,,,,,,,,,,,,,,1903,18.5125,-67.09833333,,,,,,,,,,18.49527778,-67.14722222,194,,,,,,,,,,,
,,,,,1678422559867,,,,,,,,,,,,,,,,,,,,,,,,,,1903,18.5125,-67.09833333,,,,,,,,,,18.49527778,-67.14722222,194,,,,,,,,,,,
,,,,,1678422559900,,,,,,,,,,,,,,,,,,,,,,,,,,1903,18.5125,-67.09833333,,,,,,,,,,18.49527778,-67.14722222,194,,,,,,,,,,,
,,,,,1678422559933,,,,,,,,,,,,,,,,,,,,,,,,,,1904,18.5125,-67.09833333,,,,,,,,,,18.495,-67.14722222,194,,,,,,,,,,,
,,,,,1678422559967,,,,,,,,,,,,,,,,,,,,,,,,,,1904,18.5125,-67.09861111,,,,,,,,,,18.495,-67.14722222,194,,,,,,,,,,,
,,,,,1678422560000,,,,,,,,,,,,,,,,,,,,,,,,,,1904,18.5125,-67.09861111,,,,,,,,,,18.495,-67.14722222,194,,,,,,,,,,,
,,,,,1678422560033,,,,,,,,,,,,,,,,,,,,,,,,,,1904,18.5125,-67.09861111,,,,,,,,,,18.495,-67.14722222,194,,,,,,,,,,,
,,,,,1678422560067,,,,,,,,,,,,,,,,,,,,,,,,,,1904,18.5125,-67.09861111,,,,,,,,,,18.495,-67.14722222,194,,,,,,,,,,,
,,,,,1678422560100,,,,,,,,,,,,,,,,,,,,,,,,,,1904,18.5125,-67.09861111,,,,,,,,,,18.495,-67.14722222,194,,,,,,,,,,,
,,,,,1678422560133,,,,,,,,,,,,,,,,,,,,,,,,,,1904,18.5125,-67.09861111,,,,,,,,,,18.495,-67.14722222,194,,,,,,,,,,,
,,,,,1678422560167,,,,,,,,,,,,,,,,,,,,,,,,,,1905,18.5125,-67.09861111,,,,,,,,,,18.495,-67.14777778,194,,,,,,,,,,,
,,,,,1678422560200,,,,,,,,,,,,,,,,,,,,,,,,,,1905,18.5125,-67.09861111,,,,,,,,,,18.495,-67.14777778,194,,,,,,,,,,,
,,,,,1678422560233,,,,,,,,,,,,,,,,,,,,,,,,,,1905,18.51277778,-67.09861111,,,,,,,,,,18.495,-67.14777778,194,,,,,,,,,,,
,,,,,1678422560267,,,,,,,,,,,,,,,,,,,,,,,,,,1905,18.51277778,-67.09861111,,,,,,,,,,18.495,-67.14777778,194,,,,,,,,,,,
,,,,,1678422560300,,,,,,,,,,,,,,,,,,,,,,,,,,1905,18.51277778,-67.09861111,,,,,,,,,,18.495,-67.14777778,194,,,,,,,,,,,
,,,,,1678422560333,,,,,,,,,,,,,,,,,,,,,,,,,,1905,18.51277778,-67.09861111,,,,,,,,,,18.495,-67.14777778,194,,,,,,,,,,,
,,,,,1678422560367,,,,,,,,,,,,,,,,,,,,,,,,,,1905,18.51277778,-67.09861111,,,,,,,,,,18.495,-67.1475,210,,,,,,,,,,,
,,,,,1678422560400,,,,,,,,,,,,,,,,,,,,,,,,,,1905,18.51277778,-67.09861111,,,,,,,,,,18.495,-67.1475,210,,,,,,,,,,,
,,,,,1678422560433,,,,,,,,,,,,,,,,,,,,,,,,,,1905,18.51305556,-67.09861111,,,,,,,,,,18.495,-67.1475,210,,,,,,,,,,,
,,,,,1678422560467,,,,,,,,,,,,,,,,,,,,,,,,,,1905,18.51305556,-67.09861111,,,,,,,,,,18.495,-67.1475,210,,,,,,,,,,,
,,,,,1678422560500,,,,,,,,,,,,,,,,,,,,,,,,,,1905,18.51305556,-67.09861111,,,,,,,,,,18.495,-67.1475,210,,,,,,,,,,,
,,,,,1678422560533,,,,,,,,,,,,,,,,,,,,,,,,,,1905,18.51305556,-67.09861111,,,,,,,,,,18.495,-67.1475,210,,,,,,,,,,,
,,,,,1678422560567,,,,,,,,,,,,,,,,,,,,,,,,,,1905,18.51305556,-67.09861111,,,,,,,,,,18.495,-67.1475,210,,,,,,,,,,,
,,,,,1678422560600,,,,,,,,,,,,,,,,,,,,,,,,,,1906,18.51305556,-67.09861111,,,,,,,,,,18.495,-67.1475,210,,,,,,,,,,,
,,,,,1678422560633,,,,,,,,,,,,,,,,,,,,,,,,,,1906,18.51305556,-67.09888889,,,,,,,,,,18.495,-67.1475,210,,,,,,,,,,,
,,,,,1678422560667,,,,,,,,,,,,,,,,,,,,,,,,,,1906,18.51305556,-67.09888889,,,,,,,,,,18.495,-67.1475,210,,,,,,,,,,,
,,,,,1678422560700,,,,,,,,,,,,,,,,,,,,,,,,,,1906,18.51305556,-67.09888889,,,,,,,,,,18.495,-67.1475,210,,,,,,,,,,,
,,,,,1678422560733,,,,,,,,,,,,,,,,,,,,,,,,,,1906,18.51305556,-67.09888889,,,,,,,,,,18.495,-67.1475,210,,,,,,,,,,,
,,,,,1678422560767,,,,,,,,,,,,,,,,,,,,,,,,,,1906,18.51305556,-67.09888889,,,,,,,,,,18.495,-67.1475,210,,,,,,,,,,,
,,,,,1678422560800,,,,,,,,,,,,,,,,,,,,,,,,,,1906,18.51305556,-67.09888889,,,,,,,,,,18.495,-67.1475,210,,,,,,,,,,,
,,,,,1678422560833,,,,,,,,,,,,,,,,,,,,,,,,,,1906,18.51333333,-67.09888889,,,,,,,,,,18.495,-67.1475,210,,,,,,,,,,,
,,,,,1678422560867,,,,,,,,,,,,,,,,,,,,,,,,,,1906,18.51333333,-67.09888889,,,,,,,,,,18.495,-67.1475,210,,,,,,,,,,,
,,,,,1678422560900,,,,,,,,,,,,,,,,,,,,,,,,,,1906,18.51333333,-67.09888889,,,,,,,,,,18.495,-67.1475,210,,,,,,,,,,,
,,,,,1678422560933,,,,,,,,,,,,,,,,,,,,,,,,,,1906,18.51333333,-67.09888889,,,,,,,,,,18.495,-67.1475,210,,,,,,,,,,,
,,,,,1678422560967,,,,,,,,,,,,,,,,,,,,,,,,,,1906,18.51333333,-67.09888889,,,,,,,,,,18.495,-67.1475,210,,,,,,,,,,,
,,,,,1678422561000,,,,,,,,,,,,,,,,,,,,,,,,,,1907,18.51333333,-67.09888889,,,,,,,,,,18.495,-67.1475,210,,,,,,,,,,,
,,,,,1678422561033,,,,,,,,,,,,,,,,,,,,,,,,,,1907,18.51333333,-67.09888889,,,,,,,,,,18.495,-67.1475,210,,,,,,,,,,,
,,,,,1678422561067,,,,,,,,,,,,,,,,,,,,,,,,,,1907,18.51333333,-67.09888889,,,,,,,,,,18.495,-67.1475,210,,,,,,,,,,,
,,,,,1678422561100,,,,,,,,,,,,,,,,,,,,,,,,,,1907,18.51333333,-67.09888889,,,,,,,,,,18.495,-67.1475,210,,,,,,,,,,,
,,,,,1678422561133,,,,,,,,,,,,,,,,,,,,,,,,,,1907,18.51333333,-67.09888889,,,,,,,,,,18.495,-67.1475,210,,,,,,,,,,,
,,,,,1678422561167,,,,,,,,,,,,,,,,,,,,,,,,,,1907,18.51333333,-67.09888889,,,,,,,,,,18.495,-67.1475,210,,,,,,,,,,,
,,,,,1678422561200,,,,,,,,,,,,,,,,,,,,,,,,,,1907,18.51333333,-67.09888889,,,,,,,,,,18.495,-67.1475,210,,,,,,,,,,,
,,,,,1678422561233,,,,,,,,,,,,,,,,,,,,,,,,,,1907,18.51333333,-67.09888889,,,,,,,,,,18.495,-67.14694444,210,,,,,,,,,,,
,,,,,1678422561267,,,,,,,,,,,,,,,,,,,,,,,,,,1907,18.51361111,-67.09916667,,,,,,,,,,18.495,-67.14694444,210,,,,,,,,,,,
,,,,,1678422561300,,,,,,,,,,,,,,,,,,,,,,,,,,1907,18.51361111,-67.09916667,,,,,,,,,,18.495,-67.14694444,210,,,,,,,,,,,
,,,,,1678422561333,,,,,,,,,,,,,,,,,,,,,,,,,,1907,18.51361111,-67.09916667,,,,,,,,,,18.495,-67.14694444,210,,,,,,,,,,,
,,,,,1678422561367,,,,,,,,,,,,,,,,,,,,,,,,,,1907,18.51361111,-67.09916667,,,,,,,,,,18.495,-67.14694444,210,,,,,,,,,,,
,,,,,1678422561400,,,,,,,,,,,,,,,,,,,,,,,,,,1907,18.51361111,-67.09916667,,,,,,,,,,18.495,-67.14694444,210,,,,,,,,,,,
,,,,,1678422561433,,,,,,,,,,,,,,,,,,,,,,,,,,1908,18.51361111,-67.09916667,,,,,,,,,,18.49472222,-67.14694444,210,,,,,,,,,,,
,,,,,1678422561467,,,,,,,,,,,,,,,,,,,,,,,,,,1908,18.51388889,-67.09916667,,,,,,,,,,18.49472222,-67.14638889,207,,,,,,,,,,,
,,,,,1678422561500,,,,,,,,,,,,,,,,,,,,,,,,,,1908,18.51388889,-67.09916667,,,,,,,,,,18.49472222,-67.14638889,207,,,,,,,,,,,
,,,,,1678422561533,,,,,,,,,,,,,,,,,,,,,,,,,,1908,18.51388889,-67.09916667,,,,,,,,,,18.49472222,-67.14638889,207,,,,,,,,,,,
,,,,,1678422561567,,,,,,,,,,,,,,,,,,,,,,,,,,1908,18.51388889,-67.09916667,,,,,,,,,,18.49472222,-67.14638889,207,,,,,,,,,,,
,,,,,1678422561600,,,,,,,,,,,,,,,,,,,,,,,,,,1908,18.51388889,-67.09916667,,,,,,,,,,18.49472222,-67.14638889,207,,,,,,,,,,,
,,,,,1678422561633,,,,,,,,,,,,,,,,,,,,,,,,,,1908,18.51388889,-67.09916667,,,,,,,,,,18.49472222,-67.14638889,207,,,,,,,,,,,
,,,,,1678422561667,,,,,,,,,,,,,,,,,,,,,,,,,,1909,18.51388889,-67.09916667,,,,,,,,,,18.49444444,-67.14611111,207,,,,,,,,,,,
,,,,,1678422561700,,,,,,,,,,,,,,,,,,,,,,,,,,1909,18.51388889,-67.09916667,,,,,,,,,,18.49444444,-67.14611111,207,,,,,,,,,,,
,,,,,1678422561733,,,,,,,,,,,,,,,,,,,,,,,,,,1909,18.51388889,-67.09916667,,,,,,,,,,18.49444444,-67.14611111,207,,,,,,,,,,,
,,,,,1678422561767,,,,,,,,,,,,,,,,,,,,,,,,,,1909,18.51388889,-67.09916667,,,,,,,,,,18.49444444,-67.14611111,207,,,,,,,,,,,
,,,,,1678422561800,,,,,,,,,,,,,,,,,,,,,,,,,,1909,18.51388889,-67.09916667,,,,,,,,,,18.49444444,-67.14611111,207,,,,,,,,,,,
,,,,,1678422561833,,,,,,,,,,,,,,,,,,,,,,,,,,1909,18.51388889,-67.09916667,,,,,,,,,,18.49444444,-67.14611111,207,,,,,,,,,,,
,,,,,1678422561867,,,,,,,,,,,,,,,,,,,,,,,,,,1909,18.51388889,-67.09916667,,,,,,,,,,18.49444444,-67.14611111,207,,,,,,,,,,,
,,,,,1678422561900,,,,,,,,,,,,,,,,,,,,,,,,,,1909,18.51416667,-67.09944444,,,,,,,,,,18.49416667,-67.14611111,207,,,,,,,,,,,
,,,,,1678422561933,,,,,,,,,,,,,,,,,,,,,,,,,,1909,18.51416667,-67.09944444,,,,,,,,,,18.49416667,-67.14611111,207,,,,,,,,,,,
,,,,,1678422561967,,,,,,,,,,,,,,,,,,,,,,,,,,1909,18.51416667,-67.09944444,,,,,,,,,,18.49416667,-67.14611111,207,,,,,,,,,,,
,,,,,1678422562000,,,,,,,,,,,,,,,,,,,,,,,,,,1909,18.51416667,-67.09944444,,,,,,,,,,18.49416667,-67.14611111,207,,,,,,,,,,,
,,,,,1678422562033,,,,,,,,,,,,,,,,,,,,,,,,,,1909,18.51416667,-67.09944444,,,,,,,,,,18.49416667,-67.14611111,207,,,,,,,,,,,
,,,,,1678422562067,,,,,,,,,,,,,,,,,,,,,,,,,,1909,18.51416667,-67.09944444,,,,,,,,,,18.49416667,-67.14611111,207,,,,,,,,,,,
,,,,,1678422562100,,,,,,,,,,,,,,,,,,,,,,,,,,1910,18.51416667,-67.09944444,,,,,,,,,,18.49388889,-67.14611111,207,,,,,,,,,,,
,,,,,1678422562133,,,,,,,,,,,,,,,,,,,,,,,,,,1910,18.51416667,-67.09944444,,,,,,,,,,18.49388889,-67.14611111,207,,,,,,,,,,,
,,,,,1678422562167,,,,,,,,,,,,,,,,,,,,,,,,,,1910,18.51416667,-67.09944444,,,,,,,,,,18.49388889,-67.14611111,207,,,,,,,,,,,
,,,,,1678422562200,,,,,,,,,,,,,,,,,,,,,,,,,,1910,18.51416667,-67.09944444,,,,,,,,,,18.49388889,-67.14611111,207,,,,,,,,,,,
,,,,,1678422562233,,,,,,,,,,,,,,,,,,,,,,,,,,1910,18.51416667,-67.09944444,,,,,,,,,,18.49388889,-67.14611111,207,,,,,,,,,,,
,,,,,1678422562267,,,,,,,,,,,,,,,,,,,,,,,,,,1910,18.51416667,-67.09944444,,,,,,,,,,18.49388889,-67.14611111,207,,,,,,,,,,,
,,,,,1678422562300,,,,,,,,,,,,,,,,,,,,,,,,,,1910,18.51416667,-67.09944444,,,,,,,,,,18.49388889,-67.14611111,213,,,,,,,,,,,
,,,,,1678422562333,,,,,,,,,,,,,,,,,,,,,,,,,,1911,18.51444444,-67.09944444,,,,,,,,,,18.49361111,-67.14638889,213,,,,,,,,,,,
,,,,,1678422562367,,,,,,,,,,,,,,,,,,,,,,,,,,1911,18.51444444,-67.09972222,,,,,,,,,,18.49361111,-67.14638889,213,,,,,,,,,,,
,,,,,1678422562400,,,,,,,,,,,,,,,,,,,,,,,,,,1911,18.51444444,-67.09972222,,,,,,,,,,18.49361111,-67.14638889,213,,,,,,,,,,,
,,,,,1678422562433,,,,,,,,,,,,,,,,,,,,,,,,,,1911,18.51444444,-67.09972222,,,,,,,,,,18.49361111,-67.14638889,213,,,,,,,,,,,
,,,,,1678422562467,,,,,,,,,,,,,,,,,,,,,,,,,,1911,18.51444444,-67.09972222,,,,,,,,,,18.49361111,-67.14638889,213,,,,,,,,,,,
,,,,,1678422562500,,,,,,,,,,,,,,,,,,,,,,,,,,1911,18.51444444,-67.09972222,,,,,,,,,,18.49277778,-67.1475,213,,,,,,,,,,,
,,,,,1678422562533,,,,,,,,,,,,,,,,,,,,,,,,,,1911,18.51444444,-67.09972222,,,,,,,,,,18.49277778,-67.1475,213,,,,,,,,,,,
,,,,,1678422562567,,,,,,,,,,,,,,,,,,,,,,,,,,1911,18.51472222,-67.09972222,,,,,,,,,,18.49277778,-67.1475,213,,,,,,,,,,,
,,,,,1678422562600,,,,,,,,,,,,,,,,,,,,,,,,,,1911,18.51472222,-67.09972222,,,,,,,,,,18.49277778,-67.1475,213,,,,,,,,,,,
,,,,,1678422562633,,,,,,,,,,,,,,,,,,,,,,,,,,1911,18.51472222,-67.09972222,,,,,,,,,,18.49277778,-67.1475,213,,,,,,,,,,,
,,,,,1678422562667,,,,,,,,,,,,,,,,,,,,,,,,,,1911,18.51472222,-67.09972222,,,,,,,,,,18.49277778,-67.1475,213,,,,,,,,,,,
,,,,,1678422562700,,,,,,,,,,,,,,,,,,,,,,,,,,1911,18.51472222,-67.09972222,,,,,,,,,,18.49277778,-67.14777778,213,,,,,,,,,,,
,,,,,1678422562733,,,,,,,,,,,,,,,,,,,,,,,,,,1911,18.51472222,-67.09972222,,,,,,,,,,18.4925,-67.14777778,213,,,,,,,,,,,
,,,,,1678422562767,,,,,,,,,,,,,,,,,,,,,,,,,,1911,18.51472222,-67.09972222,,,,,,,,,,18.4925,-67.14777778,213,,,,,,,,,,,
,,,,,1678422562800,,,,,,,,,,,,,,,,,,,,,,,,,,1911,18.51472222,-67.09972222,,,,,,,,,,18.4925,-67.14777778,213,,,,,,,,,,,
,,,,,1678422562833,,,,,,,,,,,,,,,,,,,,,,,,,,1911,18.51472222,-67.09972222,,,,,,,,,,18.4925,-67.14777778,213,,,,,,,,,,,
,,,,,1678422562867,,,,,,,,,,,,,,,,,,,,,,,,,,1911,18.51472222,-67.09972222,,,,,,,,,,18.4925,-67.14777778,213,,,,,,,,,,,
,,,,,1678422562900,,,,,,,,,,,,,,,,,,,,,,,,,,1911,18.51472222,-67.09972222,,,,,,,,,,18.4925,-67.14777778,213,,,,,,,,,,,
,,,,,1678422562933,,,,,,,,,,,,,,,,,,,,,,,,,,1911,18.51472222,-67.09972222,,,,,,,,,,18.4925,-67.14777778,213,,,,,,,,,,,
,,,,,1678422562967,,,,,,,,,,,,,,,,,,,,,,,,,,1911,18.515,-67.1,,,,,,,,,,18.49222222,-67.14777778,213,,,,,,,,,,,
,,,,,1678422563000,,,,,,,,,,,,,,,,,,,,,,,,,,1911,18.515,-67.1,,,,,,,,,,18.49222222,-67.14777778,213,,,,,,,,,,,
,,,,,1678422563033,,,,,,,,,,,,,,,,,,,,,,,,,,1911,18.515,-67.1,,,,,,,,,,18.49222222,-67.14777778,213,,,,,,,,,,,
,,,,,1678422563067,,,,,,,,,,,,,,,,,,,,,,,,,,1911,18.515,-67.1,,,,,,,,,,18.49222222,-67.14777778,213,,,,,,,,,,,
,,,,,1678422563100,,,,,,,,,,,,,,,,,,,,,,,,,,1911,18.515,-67.1,,,,,,,,,,18.49222222,-67.14777778,213,,,,,,,,,,,
,,,,,1678422563133,,,,,,,,,,,,,,,,,,,,,,,,,,1911,18.515,-67.1,,,,,,,,,,18.49222222,-67.14777778,213,,,,,,,,,,,
,,,,,1678422563167,,,,,,,,,,,,,,,,,,,,,,,,,,1912,18.515,-67.1,,,,,,,,,,18.49222222,-67.1475,213,,,,,,,,,,,
,,,,,1678422563200,,,,,,,,,,,,,,,,,,,,,,,,,,1912,18.515,-67.1,,,,,,,,,,18.49222222,-67.1475,213,,,,,,,,,,,
,,,,,1678422563233,,,,,,,,,,,,,,,,,,,,,,,,,,1912,18.515,-67.1,,,,,,,,,,18.49222222,-67.1475,213,,,,,,,,,,,
,,,,,1678422563267,,,,,,,,,,,,,,,,,,,,,,,,,,1912,18.515,-67.1,,,,,,,,,,18.49222222,-67.1475,213,,,,,,,,,,,
,,,,,1678422563300,,,,,,,,,,,,,,,,,,,,,,,,,,1912,18.515,-67.1,,,,,,,,,,18.49222222,-67.1475,213,,,,,,,,,,,
,,,,,1678422563333,,,,,,,,,,,,,,,,,,,,,,,,,,1912,18.515,-67.1,,,,,,,,,,18.49222222,-67.1475,213,,,,,,,,,,,
,,,,,1678422563367,,,,,,,,,,,,,,,,,,,,,,,,,,1912,18.515,-67.1,,,,,,,,,,18.49277778,-67.14638889,213,,,,,,,,,,,
,,,,,1678422563400,,,,,,,,,,,,,,,,,,,,,,,,,,1912,18.51527778,-67.1,,,,,,,,,,18.49277778,-67.14638889,223,,,,,,,,,,,
,,,,,1678422563433,,,,,,,,,,,,,,,,,,,,,,,,,,1912,18.51527778,-67.10027778,,,,,,,,,,18.49277778,-67.14638889,223,,,,,,,,,,,
,,,,,1678422563467,,,,,,,,,,,,,,,,,,,,,,,,,,1912,18.51527778,-67.10027778,,,,,,,,,,18.49277778,-67.14638889,223,,,,,,,,,,,
,,,,,1678422563500,,,,,,,,,,,,,,,,,,,,,,,,,,1912,18.51527778,-67.10027778,,,,,,,,,,18.49277778,-67.14638889,223,,,,,,,,,,,
,,,,,1678422563533,,,,,,,,,,,,,,,,,,,,,,,,,,1912,18.51527778,-67.10027778,,,,,,,,,,18.49277778,-67.14638889,223,,,,,,,,,,,
,,,,,1678422563567,,,,,,,,,,,,,,,,,,,,,,,,,,1912,18.51527778,-67.10027778,,,,,,,,,,18.49277778,-67.14638889,223,,,,,,,,,,,
,,,,,1678422563600,,,,,,,,,,,,,,,,,,,,,,,,,,1912,18.51527778,-67.10027778,,,,,,,,,,18.49277778,-67.14611111,223,,,,,,,,,,,
,,,,,1678422563633,,,,,,,,,,,,,,,,,,,,,,,,,,1912,18.51527778,-67.10027778,,,,,,,,,,18.49277778,-67.14611111,223,,,,,,,,,,,
,,,,,1678422563667,,,,,,,,,,,,,,,,,,,,,,,,,,1912,18.51527778,-67.10027778,,,,,,,,,,18.49277778,-67.14611111,223,,,,,,,,,,,
,,,,,1678422563700,,,,,,,,,,,,,,,,,,,,,,,,,,1912,18.51527778,-67.10027778,,,,,,,,,,18.49277778,-67.14611111,223,,,,,,,,,,,
,,,,,1678422563733,,,,,,,,,,,,,,,,,,,,,,,,,,1912,18.51527778,-67.10027778,,,,,,,,,,18.49277778,-67.14611111,223,,,,,,,,,,,
,,,,,1678422563767,,,,,,,,,,,,,,,,,,,,,,,,,,1912,18.51527778,-67.10027778,,,,,,,,,,18.49277778,-67.14611111,223,,,,,,,,,,,
,,,,,1678422563800,,,,,,,,,,,,,,,,,,,,,,,,,,1912,18.51527778,-67.10027778,,,,,,,,,,18.49277778,-67.14611111,223,,,,,,,,,,,
,,,,,1678422563833,,,,,,,,,,,,,,,,,,,,,,,,,,1912,18.51555556,-67.10055556,,,,,,,,,,18.49277778,-67.14611111,223,,,,,,,,,,,
,,,,,1678422563867,,,,,,,,,,,,,,,,,,,,,,,,,,1912,18.51555556,-67.10055556,,,,,,,,,,18.49277778,-67.14611111,223,,,,,,,,,,,
,,,,,1678422563900,,,,,,,,,,,,,,,,,,,,,,,,,,1912,18.51555556,-67.10055556,,,,,,,,,,18.49277778,-67.14611111,223,,,,,,,,,,,
,,,,,1678422563933,,,,,,,,,,,,,,,,,,,,,,,,,,1912,18.51555556,-67.10055556,,,,,,,,,,18.49277778,-67.14611111,223,,,,,,,,,,,
,,,,,1678422563967,,,,,,,,,,,,,,,,,,,,,,,,,,1912,18.51555556,-67.10055556,,,,,,,,,,18.49277778,-67.14611111,223,,,,,,,,,,,
,,,,,1678422564000,,,,,,,,,,,,,,,,,,,,,,,,,,1912,18.51555556,-67.10055556,,,,,,,,,,18.49277778,-67.14611111,223,,,,,,,,,,,
,,,,,1678422564033,,,,,,,,,,,,,,,,,,,,,,,,,,1912,18.51583333,-67.10055556,,,,,,,,,,18.49277778,-67.14611111,223,,,,,,,,,,,
,,,,,1678422564067,,,,,,,,,,,,,,,,,,,,,,,,,,1912,18.51583333,-67.10055556,,,,,,,,,,18.49277778,-67.14611111,223,,,,,,,,,,,
,,,,,1678422564100,,,,,,,,,,,,,,,,,,,,,,,,,,1912,18.51583333,-67.10055556,,,,,,,,,,18.49277778,-67.14611111,223,,,,,,,,,,,
,,,,,1678422564133,,,,,,,,,,,,,,,,,,,,,,,,,,1912,18.51583333,-67.10055556,,,,,,,,,,18.49277778,-67.14611111,223,,,,,,,,,,,
,,,,,1678422564167,,,,,,,,,,,,,,,,,,,,,,,,,,1912,18.51583333,-67.10055556,,,,,,,,,,18.49277778,-67.14611111,223,,,,,,,,,,,
,,,,,1678422564200,,,,,,,,,,,,,,,,,,,,,,,,,,1912,18.51583333,-67.10055556,,,,,,,,,,18.49277778,-67.14611111,223,,,,,,,,,,,
,,,,,1678422564233,,,,,,,,,,,,,,,,,,,,,,,,,,1912,18.51583333,-67.10055556,,,,,,,,,,18.4925,-67.14611111,223,,,,,,,,,,,
,,,,,1678422564267,,,,,,,,,,,,,,,,,,,,,,,,,,1912,18.51583333,-67.10055556,,,,,,,,,,18.4925,-67.14611111,223,,,,,,,,,,,
,,,,,1678422564300,,,,,,,,,,,,,,,,,,,,,,,,,,1912,18.51583333,-67.10055556,,,,,,,,,,18.4925,-67.14611111,223,,,,,,,,,,,
,,,,,1678422564333,,,,,,,,,,,,,,,,,,,,,,,,,,1912,18.51583333,-67.10055556,,,,,,,,,,18.4925,-67.14611111,223,,,,,,,,,,,
,,,,,1678422564367,,,,,,,,,,,,,,,,,,,,,,,,,,1912,18.51583333,-67.10055556,,,,,,,,,,18.4925,-67.14611111,223,,,,,,,,,,,
,,,,,1678422564400,,,,,,,,,,,,,,,,,,,,,,,,,,1912,18.51583333,-67.10055556,,,,,,,,,,18.4925,-67.14611111,223,,,,,,,,,,,
,,,,,1678422564433,,,,,,,,,,,,,,,,,,,,,,,,,,1912,18.51583333,-67.10055556,,,,,,,,,,18.4925,-67.14611111,226,,,,,,,,,,,
